,stop_id,stop_name,stop_lat,stop_lon,true_stop_id
0,8220B007612,Davenport Hotel Merrion Street,53.3413467794909,-6.250529480367451,7612
1,8220DB000002,"Rotunda, Parnell Square West",53.3522443611383,-6.26372321891887,2
2,8220DB000003,"Rotunda, Granby Place",53.35230855143251,-6.26381074216825,3
3,8220DB000004,"Rotunda, Rotunda Hospital",53.352574513185,-6.26417548603797,4
4,8220DB000006,"Rotunda, Saint Martin's Chapel",53.3527493357046,-6.264453803964339,6
5,8220DB000007,"Rotunda, Rotunda Hospital",53.352840910578394,-6.26457026121749,7
6,8220DB000008,"Rotunda, Parnell Square West",53.3532722714822,-6.265183676574,8
7,8220DB000010,"Rotunda, Parnell Square West",53.3533921036473,-6.265389123899539,10
8,8220DB000011,"Phibsborough, Upper Dorset St (St.Joseph's Parade)",53.3569583030018,-6.264628310669281,11
9,8220DB000012,"Phibsborough, Upper Dorset St (St.Joseph's Parade)",53.356804940545,-6.2645894713639105,12
10,8220DB000014,"Phibsborough, Lower Dorset Street",53.358531237875795,-6.26277650570871,14
11,8220DB000015,"Ballybough, Lower Dorset Street",53.360088584135895,-6.261090470313599,15
12,8220DB000016,"Cabra, John Paul Park",53.36639155714111,-6.3056141835273705,16
13,8220DB000017,"Drumcondra, Outside Train Station",53.36291707327501,-6.2584359173339905,17
14,8220DB000018,"Drumcondra, Lower Drumcondra Road",53.365855925916605,-6.25595682067835,18
15,8220DB000019,"Drumcondra, Lower Drumcondra Road",53.3671437314429,-6.25551350128863,19
16,8220DB000021,"Drumcondra (Dublin), Saint Patrick's College",53.3701011992947,-6.25431059904442,21
17,8220DB000022,"Drumcondra (Dublin), Home Farm Road (Achill Road)",53.3735036097406,-6.25280375269006,22
18,8220DB000023,"Drumcondra (Dublin), Ferguson Road",53.374228280079095,-6.256261004167,23
19,8220DB000024,"Drumcondra (Dublin), Home Farm Road",53.375133158884104,-6.26037234812319,24
20,8220DB000025,"Glasnevin, Rathlin Road",53.375899466147395,-6.26361773641709,25
21,8220DB000027,"Glasnevin, Ballymun Road (Griffith Avenue)",53.3794389600107,-6.266585261260031,27
22,8220DB000028,"Wadelai, Glasnevin Tennis Club",53.381578637628,-6.26600227077738,28
23,8220DB000029,"Whitehall (Dublin City), Ballymun Road",53.383488252945696,-6.26566910125417,29
24,8220DB000030,"Cabra, Pope John Paul II Park",53.3703319001931,-6.304601169229129,30
25,8220DB000031,"Wadelai, Maolbuille Road",53.3860332259144,-6.2688580772749996,31
26,8220DB000032,"Wadelai, Saint Pappin's Road",53.386195568073795,-6.271377201041401,32
27,8220DB000033,"Wadelai, Glasnevin Drive",53.3887179243058,-6.27177114122451,33
28,8220DB000035,"Wadelai, Dean Swift Road",53.386206787101294,-6.270910692540999,35
29,8220DB000036,"Wadelai, Saint Pappin's Road",53.386126850410996,-6.267877069783389,36
30,8220DB000037,"Whitehall (Dublin City), DCU Ballymun Road",53.385346401194,-6.264886981317941,37
31,8220DB000038,"Whitehall (Dublin City), Ballymun Road",53.3822365941636,-6.265509521205059,38
32,8220DB000039,"Glasnevin, Ballymun Road (Griffith Avenue)",53.3804141869323,-6.265658759065889,39
33,8220DB000040,"Glasnevin, Mobhi Road",53.37666076545071,-6.26466896852795,40
34,8220DB000041,"Drumcondra (Dublin), Home Farm Road",53.375559268325794,-6.26185800624669,41
35,8220DB000042,"Drumcondra (Dublin), Ferguson Road",53.3746502734575,-6.25746118972134,42
36,8220DB000043,"Drumcondra (Dublin), Home Farm Road (Achill Road)",53.37386122022679,-6.253901310433919,43
37,8220DB000044,"Drumcondra (Dublin), Homefarm Road",53.3730174091204,-6.25213230324296,44
38,8220DB000045,"Drumcondra, Upper Drumcondra Road",53.369990110962895,-6.254089717169911,45
39,8220DB000046,"Drumcondra (Dublin), Botanic Avenue",53.3671507382056,-6.25537796909961,46
40,8220DB000047,"Drumcondra, Near Train Station",53.3639161189927,-6.25729825652802,47
41,8220DB000048,"Summerhill (Dublin City), Lower Drumcondra Road",53.362329033001004,-6.25879046525832,48
42,8220DB000049,"Ballybough, Lower Dorset Street",53.360031842720794,-6.26089745848732,49
43,8220DB000051,Upper Dorset St (Temple Street),53.3579898458103,-6.26324925121845,51
44,8220DB000052,"Phibsborough, Upper Dorset St (St.Joseph's Parade)",53.3567946474934,-6.264499747697281,52
45,8220DB000053,"Phibsborough, North Circular Road (Lower Dorset Street)",53.3600144884223,-6.26279128910753,53
46,8220DB000054,"Phibsborough, North Circular Road (Mater Hospital)",53.360153709098505,-6.265565220090599,54
47,8220DB000055,"Phibsborough, Mater Hospital Mortuary",53.3604116029234,-6.26846957982236,55
48,8220DB000056,"Phibsborough, Cabra Road (North Circular Road)",53.3607597246041,-6.2763736549141,56
49,8220DB000057,"Phibsborough, Cabra Road (North Circular Road)",53.360816224291895,-6.276551674843311,57
50,8220DB000058,"Cabra East, Cabra Road (Charleville Road)",53.36094624589129,-6.28120420246723,58
51,8220DB000059,"Cabra East, Cabra Road (near Annamoe Terrace)",53.361018010196396,-6.28494256312827,59
52,8220DB000060,"Cabra East, Cabra Road (Quarry Road)",53.361279219648196,-6.28936450005445,60
53,8220DB000063,"Cabra East, Faussagh Avenue",53.36679243729299,-6.29275010805854,63
54,8220DB000064,"Cabra, Faussagh Avenue (Church)",53.36708858206671,-6.295232782203361,64
55,8220DB000065,"Cabra, Faussagh Avenue (Dingle Road)",53.3672546442387,-6.29805127641299,65
56,8220DB000066,"Cabra, Faussagh Avenue (Dingle Road)",53.3672749883703,-6.30074034554992,66
57,8220DB000068,"Cabra, Ventry Drive",53.369077508046,-6.304245234666411,68
58,8220DB000069,"Cabra, Ventry Park Estate",53.371392564093505,-6.30334171689525,69
59,8220DB000071,"Cabra, Pope John Paul II Park",53.3702576893289,-6.304438805303509,71
60,8220DB000072,"Cabra, Ventry Drive",53.368969926025,-6.30426453600163,72
61,8220DB000073,"Cabra, Faussagh Avenue (Dingle Road)",53.3673915527258,-6.300720678655701,73
62,8220DB000074,"Cabra, Faussagh Avenue (Church)",53.36720023856339,-6.2954988140077806,74
63,8220DB000075,"Cabra East, Faussagh Avenue",53.3665472298946,-6.29131731936794,75
64,8220DB000077,"Cabra East, Cabra Road (Quarry Road)",53.361309181902506,-6.28957365234688,77
65,8220DB000078,"Cabra East, Cabra Road (near Annamoe Terrace)",53.3611492151906,-6.28406583527474,78
66,8220DB000079,"Cabra East, Cabra Road (Charleville Road)",53.3610212509762,-6.28079550562153,79
67,8220DB000080,"Phibsborough, Cabra Road (North Circular Road)",53.360862963273,-6.27605396152962,80
68,8220DB000081,"Phibsborough, North Circular Road (Phibsborough Road)",53.3608757479059,-6.27196662691607,81
69,8220DB000082,"Phibsborough, Royal Canal Bank",53.3607977959156,-6.27154908016382,82
70,8220DB000083,"Phibsborough, North Circular Road (Mater Hospital)",53.36027924982229,-6.265545096162749,83
71,8220DB000084,"Phibsborough, North Circular Road (Leo Street)",53.360162561596205,-6.26370178059102,84
72,8220DB000085,"Drumcondra (Dublin), Homefarm Road",53.3736615235483,-6.25192557043456,85
73,8220DB000086,"Whitehall (Dublin City), Garda Station",53.3760502204589,-6.25116639066169,86
74,8220DB000087,"Whitehall (Dublin City), Sherkin Gardens",53.3767517255719,-6.2548802899246,87
75,8220DB000088,"Whitehall (Dublin City), Walnut Rise",53.3772872552991,-6.257699228645611,88
76,8220DB000090,Ballymun Road (St.Pappin's Road),53.386385531673795,-6.26526567275522,90
77,8220DB000091,Ballymun Road (Glasnevin Avenue),53.38842788964829,-6.265408142076829,91
78,8220DB000092,"Wadelai, Ballymun Library",53.3898373340512,-6.2646742403610505,92
79,8220DB000093,"Wadelai, Ballymun Road (Opp Shanlis Road)",53.392301467749704,-6.26415297561013,93
80,8220DB000094,"Ballymun, Civic Centre",53.396034762411496,-6.26437695995448,94
81,8220DB000102,"Ballymun, Balbutcher Lane (Árd Na Meala)",53.3977730701661,-6.26771985697013,102
82,8220DB000104,"Poppintree, Balbutcher Lane (Carrig Road)",53.3996843452926,-6.2768158490776305,104
83,8220DB000105,"Ballymun, Balbutcher Lane (Cranogue Road)",53.4029374784001,-6.28176785224465,105
84,8220DB000107,"Ballymun, Balbutcher Lane (Cranogue Road)",53.4020356254331,-6.27968361815462,107
85,8220DB000110,"Ballymun, Balbutcher Lane (Árd Na Meala)",53.3979399488216,-6.268690557216241,110
86,8220DB000112,"Ballymun, Civic Centre",53.3961544015462,-6.2639510403018,112
87,8220DB000113,"Ballymun, Comprehensive School",53.392267962926205,-6.26370325464247,113
88,8220DB000114,"Wadelai, Ballymun Road (Shanliss Road)",53.39133332205439,-6.263711229252371,114
89,8220DB000115,"Whitehall (Dublin City), Ballymun Road (Albert College Drive)",53.3878836841267,-6.26506943988923,115
90,8220DB000116,"Whitehall (Dublin City), Griffith Lawns",53.3776934606437,-6.25966673989336,116
91,8220DB000117,"Whitehall (Dublin City), Walnut Rise",53.3773659067251,-6.25754570845526,117
92,8220DB000118,"Whitehall (Dublin City), Sherkin Gardens",53.376643001690795,-6.253592098576809,118
93,8220DB000119,"Drumcondra, Upper Drumcondra Road (Griffith Avenue)",53.3751904807235,-6.25076574528234,119
94,8220DB000126,"Ballymun, Nursing Home",53.3990954666854,-6.264086960560451,126
95,8220DB000127,"Ballymun, Silver Swan Nursing Home",53.3991075304805,-6.26368042823971,127
96,8220DB000128,"Wadelai, Glasnevin Avenue (Ballymun Road)",53.389314748294794,-6.26582313262043,128
97,8220DB000129,"Wadelai, Glasnevin Ave (Glasnevin Dr)",53.389890315447396,-6.27142293606878,129
98,8220DB000130,"Glasnevin North, Glasnevin Park",53.3900920127596,-6.27418126942506,130
99,8220DB000131,"Glasnevin North, Glasnevin Avenue (Beneavin Drive)",53.3903858902625,-6.27834923697209,131
100,8220DB000132,"Glasnevin North, Beneavin Park",53.39048394646029,-6.28266046316236,132
101,8220DB000133,"Glasnevin North, Grove Park Road",53.3907969275881,-6.28630150947292,133
102,8220DB000134,"Glasnevin North, Sycamore Road (Willow Park Crescent)",53.39309459132029,-6.286073865435609,134
103,8220DB000136,"Finglas, McKee Road",53.3943802013895,-6.2898565965000905,136
104,8220DB000137,"Finglas, Clancy Avenue",53.392316719630394,-6.292630794814321,137
105,8220DB000138,"Finglas, Saint Canice's School",53.3899219036799,-6.292350769525489,138
106,8220DB000139,"Glasnevin North, Glasnevin Avenue",53.390601462424094,-6.286459717488719,139
107,8220DB000140,"Glasnevin North, Beneavin Park",53.390659494831496,-6.2823677201561,140
108,8220DB000141,"Glasnevin North, Glasnevin Avenue (Beneavin Drive)",53.3904450850916,-6.27809124468715,141
109,8220DB000142,"Glasnevin North, Glasnevin Park",53.39019082334129,-6.27417727164297,142
110,8220DB000143,"Wadelai, Glasnevin Ave (Glasnevin Dr)",53.389876708405,-6.269243369980201,143
111,8220DB000146,"Glasnevin, Na Fianna Football Ground",53.37537139790529,-6.265006968547361,146
112,8220DB000147,"Glasnevin, Dean Swift Bridge",53.3724802262386,-6.26583086212365,147
113,8220DB000148,"Glasnevin, Mobhi Road (Botanic Road)",53.3706701663468,-6.26806850705825,148
114,8220DB000149,"Glasnevin, Mobhi Road (Mobhí Drive)",53.37313858725571,-6.26598446613778,149
115,8220DB000150,"Glasnevin, Na Fianna Football Ground",53.3756588461862,-6.264995283028231,150
116,8220DB000151,"Glasnevin, Botanic Gardens",53.371955260019206,-6.26929382771155,151
117,8220DB000153,"Glasnevin, Meteorological Office",53.375732766346395,-6.270087554537059,153
118,8220DB000154,"Glasnevin, Saint Brigid's School",53.3772589962512,-6.275557037186509,154
119,8220DB000155,"Glasnevin, Old Finglas Road",53.3778742492869,-6.279575527175719,155
120,8220DB000156,"Glasnevin, Tolka Road Estate #1",53.378623390086005,-6.2816647390949205,156
121,8220DB000157,"Glasnevin, Griffith Road",53.3804116224166,-6.281637825177651,157
122,8220DB000158,"Glasnevin, Griffith Road",53.381348935624,-6.28368956273439,158
123,8220DB000159,"Glasnevin, Griffith Parade",53.382783719157295,-6.282835112461081,159
124,8220DB000164,"Glasnevin North, Beneavin Road",53.3884303639456,-6.28048792293046,164
125,8220DB000165,"Beneavin Road, Junction Beneavin Park",53.3890348746719,-6.28377124881097,165
126,8220DB000166,"Glasnevin North, Beneavin School",53.3895835973683,-6.28630514857365,166
127,8220DB000167,"Glasnevin North, Beneavin Road (Ballygall Road East)",53.3901866021356,-6.28698758531706,167
128,8220DB000168,"Beneavin Road, Junction Beneavin Park",53.38925996688721,-6.28442373469443,168
129,8220DB000169,"Glasnevin North, Beneavin Road",53.3884339346694,-6.2801119099585305,169
130,8220DB000173,"Glasnevin, Glasnamana Place",53.3821216122982,-6.28054674839469,173
131,8220DB000174,"Glasnevin, Tolka Road Estate",53.380680354947394,-6.2809505621077095,174
132,8220DB000175,"Glasnevin, Tolka Road Estate #1",53.378424253731005,-6.28156753895514,175
133,8220DB000176,"Glasnevin, Old Finglas Road",53.3780320419735,-6.27929860607809,176
134,8220DB000177,"Glasnevin, Ballygall Road East",53.3804683765673,-6.27622403515383,177
135,8220DB000178,"Glasnevin, West Park Drive",53.381890263169296,-6.27634698261825,178
136,8220DB000179,"Glasnevin, Ballygall Road East",53.380303431276204,-6.2760052198013305,179
137,8220DB000181,"Glasnevin, Old Finglas Road (Cremore Ave)",53.3771498433764,-6.27422370686192,181
138,8220DB000182,"Glasnevin, Meteorological Office",53.3756401078363,-6.2698959167255595,182
139,8220DB000183,"Glasnevin, Botanic Gardens",53.372315929121505,-6.26875318486038,183
140,8220DB000184,"Glasnevin, Botanic Road,Cliftonville",53.3697036819826,-6.26897935449929,184
141,8220DB000185,"Glasnevin, Botanic Road",53.3681009359861,-6.27002113927784,185
142,8220DB000186,"Glasnevin, Prospect Road",53.365355342635,-6.27158997755118,186
143,8220DB000187,"Phibsborough, Phibsboro Road",53.362734252360404,-6.272447365338321,187
144,8220DB000188,"Phibsborough, Phibsboro Road (NCR)",53.3601206877553,-6.27258314915011,188
145,8220DB000189,"Phibsborough, Broadstone",53.35716743948829,-6.2734688155533895,189
146,8220DB000190,"Phibsborough, Broadstone Depot",53.35512573041449,-6.273371074005739,190
147,8220DB000191,"Phibsborough, Youth Club",53.35507685452539,-6.26937692305375,191
148,8220DB000192,"Phibsborough, Mountjoy Street",53.356397211235894,-6.2680764696391496,192
149,8220DB000193,"Finglas, McKee Road",53.391196305978795,-6.294104034873941,193
150,8220DB000194,"Phibsborough, Saint Dominic's Youth Club",53.35504064955179,-6.26997931103775,194
151,8220DB000195,"Phibsborough, Constitution Hill",53.355011777876705,-6.27357097973096,195
152,8220DB000196,"Phibsborough, Broadstone Depot",53.35688389929071,-6.27375070406954,196
153,8220DB000197,Phibsboro Road (Monck Place),53.358952631612,-6.27323137351173,197
154,8220DB000198,"Phibsborough, Phibsboro Shopping Centre",53.3616253828786,-6.27283781041661,198
155,8220DB000199,"Phibsborough, Phibsboro Road",53.363621811498206,-6.2722912462251905,199
156,8220DB000200,"Glasnevin, Prospect Way",53.36742269263121,-6.271596443938019,200
157,8220DB000201,"Glasnevin, Botanic Road",53.36829109866,-6.27011862691081,201
158,8220DB000202,"Glasnevin, Fairfield Road",53.3700800875498,-6.2689039775337605,202
159,8220DB000203,"Drumcondra, Whitehall Garda Station",53.3763927937136,-6.25001002810673,203
160,8220DB000204,"Whitehall, Highfield Hospital",53.379588357566995,-6.2466621927376105,204
161,8220DB000205,"Whitehall, Swords Road",53.3814128035703,-6.24542973242025,205
162,8220DB000206,"Whitehall, Collins Avenue West ( Larkhill Road)",53.3835460890329,-6.24747670792428,206
163,8220DB000207,"Whitehall, Larkhill Road",53.38482163073629,-6.249874782768019,207
164,8220DB000208,"Whitehall, Glendun Road",53.3866539303158,-6.24795040815756,208
165,8220DB000209,"Whitehall, Glentow Estate",53.38727111052901,-6.24591044728043,209
166,8220DB000210,"Whitehall, Crestfield Road",53.387594081272795,-6.24831772849056,210
167,8220DB000211,"Whitehall (Dublin City), Saint Aidan's School",53.3842808561631,-6.249160330594179,211
168,8220DB000212,"Whitehall, Collins Avenue West ( Larkhill Road)",53.383195635127706,-6.24625839753322,212
169,8220DB000213,"Whitehall, Iveragh Road",53.381531050665,-6.244913768139419,213
170,8220DB000214,"Whitehall, Highfield Hospital",53.379408483572995,-6.246654551825559,214
171,8220DB000215,"Whitehall, Collins Avenue West",53.381872287004796,-6.2424494292295005,215
172,8220DB000216,"Beaumont (Dublin City), Yellow Road",53.3823308174836,-6.23819131969338,216
173,8220DB000217,"Whitehall, Beaumont Road",53.384323621843,-6.2368011222044695,217
174,8220DB000218,"Beaumont, Shantalla Road (Beaumont Road)",53.3855709097602,-6.23362253145054,218
175,8220DB000220,"Whitehall, Swords Road",53.387940539655396,-6.24498084117383,220
176,8220DB000233,"Beaumont, Shantalla Road (Beaumont Road)",53.3858213105789,-6.233536994159019,233
177,8220DB000234,"Beaumont, Beaumont Grove",53.3849504827242,-6.234820842718039,234
178,8220DB000235,"Whitehall, Beaumont Road Collinswood Estate",53.3832966131819,-6.2372494565105905,235
179,8220DB000236,"Beaumont (Dublin City), Yellow Road",53.382024743095705,-6.238158860037861,236
180,8220DB000237,"Whitehall, Collins Avenue",53.3820319328819,-6.24352519975875,237
181,8220DB000242,"Beaumont, Beaumont Road",53.385654898567104,-6.23201042765,242
182,8220DB000243,"Beaumont, Beaumont Road",53.3857800608389,-6.229539674546991,243
183,8220DB000244,"Beaumont, Elmount Rise",53.38499821368529,-6.22349851566417,244
184,8220DB000245,"Beaumont, Whitethorn Crescent",53.38447224442,-6.21956660604612,245
185,8220DB000246,"Artane, Beaumont Recreational Centre",53.3851504766469,-6.216230877169959,246
186,8220DB000247,"Artane, Ardlea Road (near A1 pub)",53.3869761610588,-6.21450075590277,247
187,8220DB000248,"Artane, Maryfield Drive",53.3855645601725,-6.21446963135785,248
188,8220DB000249,"Artane, Beaumont Recreational Centre",53.384933549178804,-6.2161497449639596,249
189,8220DB000250,"Beaumont, Whitethorn Crescent",53.3844194499785,-6.2202453161013604,250
190,8220DB000251,"Beaumont, Skelly's Lane (Elmount Rise)",53.3848596736854,-6.22324871269866,251
191,8220DB000252,"Beaumont, Skelly's Lane (Opp Beaumont Crescent)",53.385568015837094,-6.22796991791541,252
192,8220DB000253,"Kilmore, Beaumont Hospital",53.3899459507358,-6.22439004685405,253
193,8220DB000254,"Kilmore, Beaumont Hospital",53.390265298443296,-6.2241061136683795,254
194,8220DB000255,"Beaumont, Coolgreena Road",53.385593880418995,-6.231531872417429,255
195,8220DB000261,"Dublin, Parnell Square North",53.3540562845333,-6.26285336122227,261
196,8220DB000262,"Dublin, Garden of Remembrance",53.3539469610394,-6.262752648921079,262
197,8220DB000263,"Dublin, Garden of Remembrance",53.3537456234947,-6.2625054539801,263
198,8220DB000264,"Dublin, Gaelscoil Cholaiste Mhuire",53.353535302671204,-6.26225862681692,264
199,8220DB000265,"Dublin, Gate Theatre",53.3533615685145,-6.26205538070461,265
200,8220DB000270,"Dublin, Upper O'Connell Street",53.3506233915308,-6.26042429163433,270
201,8220DB000271,"Dublin, Lower O'Connell Street",53.348596362581794,-6.259485419972121,271
202,8220DB000272,"Dublin, Upper O'Connell Street",53.3514644798917,-6.26078060573293,272
203,8220DB000273,"Dublin City South, O'Connell Bridge",53.347247415952395,-6.258819401539579,273
204,8220DB000274,"Dublin, Millennium Spire",53.3503490838222,-6.26072086862175,274
205,8220DB000276,"Ashtown, River Road",53.377402200924905,-6.331796583128559,276
206,8220DB000277,"Dublin, Citizens Information Service",53.35082232581801,-6.260506319786919,277
207,8220DB000278,"Dublin, Cathal Brugha Street",53.3513531741087,-6.26116068128307,278
208,8220DB000279,"Dublin, Millennium Spire",53.35013174640929,-6.26060954701665,279
209,8220DB000281,"Rotunda, Dublin Bus Head Office",53.35090995484239,-6.260968420751469,281
210,8220DB000284,"Ashtown, Rathbourne Avenue",53.3772826239301,-6.32838928381528,284
211,8220DB000286,"Dublin, Cathal Brugha Street",53.3520003824172,-6.260548478066941,286
212,8220DB000288,"Dublin, Irish Life Mall",53.349197279872506,-6.2550898269972,288
213,8220DB000289,"Dublin, Irish Life Mall",53.349035182347095,-6.25629812341943,289
214,8220DB000291,"Dublin, National Lottery Head Quarters",53.3489359441274,-6.2568879893772005,291
215,8220DB000292,"Dublin, Irish Life Mall",53.3489273892572,-6.2563025232072995,292
216,8220DB000293,"Dublin, National Lottery Head Quarters",53.3488581695532,-6.25710145511176,293
217,8220DB000297,"Dublin, Eden Quay",53.3481897170169,-6.25687337517716,297
218,8220DB000298,"Dublin, Liberty Hall",53.3482087686015,-6.256331854401799,298
219,8220DB000299,"Dublin, Liberty Hall",53.34823132876121,-6.25603052041444,299
220,8220DB000300,"Dublin, Liberty Hall",53.348209193839,-6.2557460316124,300
221,8220DB000301,"Dublin, Marlborough Street",53.347950033409795,-6.25707842203133,301
222,8220DB000302,"Dublin, Eden Quay",53.3480983541306,-6.25677195870995,302
223,8220DB000303,"Dublin, Eden Quay",53.347757898922204,-6.2580776128694104,303
224,8220DB000307,"Warrenmount, O'Donovan Road",53.334577089465895,-6.280087464165209,307
225,8220DB000308,"Warrenmount, Oscar Square",53.3367711889546,-6.2795336569240705,308
226,8220DB000309,"Warrenmount, Ardee Street",53.337849891796395,-6.2789195881599404,309
227,8220DB000312,"Temple Bar, Wellington Quay",53.3454764728264,-6.2662061554843,312
228,8220DB000313,"Dublin, Lower Liffey Street",53.34690690074449,-6.261972497710721,313
229,8220DB000315,"Dublin, Bachelors Walk",53.3469263969899,-6.26207684589386,315
230,8220DB000317,"Dublin City South, Westmoreland Street",53.3462448501457,-6.25910057954255,317
231,8220DB000318,Westmoreland Street (O'Connell Bridge),53.34630772957029,-6.25909801737036,318
232,8220DB000319,"Dublin City South, Westmoreland Street",53.34596901234671,-6.25929205738211,319
233,8220DB000320,"Dublin City South, Westmoreland Street",53.3455466028366,-6.25929424743901,320
234,8220DB000322,"Ballymun, Gulliver's Retail Park",53.4042549924644,-6.26535084532186,322
235,8220DB000325,"Temple Bar, Aston Quay",53.34673320029779,-6.25992180730209,325
236,8220DB000326,"Temple Bar, Aston Quay",53.3465796093979,-6.26048380541737,326
237,8220DB000328,"Temple Bar, Aston Quay",53.3464264533881,-6.26107582175627,328
238,8220DB000329,"Temple Bar, Aston Quay",53.346318864461296,-6.26171103970584,329
239,8220DB000333,"Dublin City South, O'Connell Bridge House",53.346648199236895,-6.258408239591611,333
240,8220DB000334,"Dublin City South, D'Olier Street",53.346581156205,-6.25812559112216,334
241,8220DB000335,"Dublin City South, D'Olier House",53.3462619374052,-6.25780816657112,335
242,8220DB000336,"Dublin City South, Ashfield House",53.3462516394294,-6.25771846673947,336
243,8220DB000340,"Dublin City South, Pearse Street Garda Station",53.3460128066369,-6.25613609916844,340
244,8220DB000342,Trinity College,53.34556411831739,-6.25680026075817,342
245,8220DB000345,"Trinity College, Garda Station",53.345475815469,-6.2562931940713,345
246,8220DB000346,"Trinity College, Garda Station",53.3455062736618,-6.256532266224,346
247,8220DB000350,"Dublin City South, Lower Sandwith Street",53.34563194158171,-6.24976824959424,350
248,8220DB000351,"Pearse Station, Pearse Street",53.3433724681717,-6.24524997856558,351
249,8220DB000352,"Grand Canal Dock, Pearse Square",53.342989145803095,-6.2424121399899,352
250,8220DB000353,"Grand Canal Dock, Pearse Street",53.342615846380795,-6.23964903171023,353
251,8220DB000354,"Grand Canal Dock, Barrow Street",53.3422200812999,-6.2365865256356905,354
252,8220DB000355,"Grand Canal Dock, Ringsend Bus Depot",53.341761451106606,-6.23292593610588,355
253,8220DB000356,"Ringsend, Bridge Street",53.3419030234416,-6.226717443134639,356
254,8220DB000357,"Irishtown, Irishtown Road",53.33917104396689,-6.223121474898571,357
255,8220DB000371,"Irishtown (Dublin City), Irishtown Gospel Hall",53.3386127807367,-6.22305458253422,371
256,8220DB000372,"Sandymount, Star Of The Sea Church",53.33542347697951,-6.21953823532786,372
257,8220DB000373,"Sandymount, Farney Park",53.33427533127129,-6.2178892725965405,373
258,8220DB000374,"Sandymount, Sandymount Road",53.3331662348684,-6.21644898414059,374
259,8220DB000375,"Sandymount, Seafort Avenue",53.3339984812299,-6.214402146218751,375
260,8220DB000376,"Sandymount, Strand Road (Lea Road)",53.33071252622501,-6.2092542646162,376
261,8220DB000377,"Sandymount, Strand Road (Gilford Road)",53.32872892923061,-6.20884189534073,377
262,8220DB000378,"Sandymount, Sandymount Tower",53.3256502919022,-6.20733447201422,378
263,8220DB000380,"Sandymount, Saint John's Road East",53.3247260855137,-6.20923477230439,380
264,8220DB000381,"Sandymount, Saint John's Church",53.32420586828171,-6.21230406086853,381
265,8220DB000382,"Sandymount, Seamount House",53.3250976571988,-6.20764288276518,382
266,8220DB000383,"Sandymount, Strand Road (Gilford Road)",53.328541421988604,-6.20892482063583,383
267,8220DB000384,"Sandymount, Strand Road (Lea Road)",53.331633952391996,-6.2101616048599695,384
268,8220DB000385,"Sandymount, Newgrove Avenue",53.332351023118,-6.21122768794003,385
269,8220DB000387,"Sandymount, Sandymount Road",53.3324995101993,-6.215741057677491,387
270,8220DB000388,"Irishtown, Sandymount Road",53.334508861965105,-6.218480172552121,388
271,8220DB000389,"Irishtown, Sandymount Road",53.33529008179621,-6.21963388936862,389
272,8220DB000390,"Sandymount, Tritonville Road",53.3377022219536,-6.22226650556187,390
273,8220DB000391,"Ringsend, Irishtown Road",53.3399922179904,-6.22394334704278,391
274,8220DB000392,"Ringsend, Saint Patrick's Church",53.3417336311665,-6.22741532105921,392
275,8220DB000393,"Sandymount, Cranfield Place",53.33690388771689,-6.22237479685263,393
276,8220DB000395,"Ringsend, Ringsend Road",53.341940053565104,-6.235276454416339,395
277,8220DB000396,"Grand Canal Dock, Pearse Street",53.342461590373794,-6.23955025594793,396
278,8220DB000397,"Grand Canal Dock, Saint Andrew's Resource Centre",53.3427855554404,-6.242015007307611,397
279,8220DB000398,"Pearse Station, Pearse Street",53.3432949350359,-6.245478446867889,398
280,8220DB000399,"Pearse Station, Pearse Street",53.3438646181754,-6.248158500364139,399
281,8220DB000400,"Trinity College, Shaw Street",53.344751161599206,-6.25283825801258,400
282,8220DB000404,"Trinity College, Nassau St. (Opp. Frederick St)",53.3427183259381,-6.2564207419068705,404
283,8220DB000405,"Trinity College, South Frederick's Street",53.342481689181604,-6.2556043726643,405
284,8220DB000406,"Trinity College, Northern Ireland Tourist Board",53.3426164442785,-6.25621463756987,406
285,8220DB000407,Custom House Quay,53.3483795866679,-6.253876505995111,407
286,8220DB000408,Merrion Square North,53.3409707826238,-6.25001923957642,408
287,8220DB000409,"Merrion Square, Holles Street",53.3401367313169,-6.24769559556976,409
288,8220DB000410,"Dublin City South, Lower Mount Street",53.3388134508634,-6.24389039032328,410
289,8220DB000411,"Dublin City South, Lower Mount Street",53.3381171192211,-6.241771553501401,411
290,8220DB000412,"Dublin City South, Northumberland Road",53.3352555102366,-6.2372793190562,412
291,8220DB000413,"Dublin City South, Northumberland Road",53.334094193305,-6.236546394051531,413
292,8220DB000414,"Ballsbridge, Northumberland Road",53.331521686467,-6.234595488264179,414
293,8220DB000415,"Ballsbridge, Elgin Road",53.3303378154068,-6.23294774966437,415
294,8220DB000416,"Ballsbridge, Merrion Road RDS",53.3286399201175,-6.22936956914703,416
295,8220DB000417,"Ballsbridge, Merrion Road (Sydenham Road)",53.327699585650606,-6.225970420488549,417
296,8220DB000418,"Ballsbridge, British Embassy",53.3257198105114,-6.22339529752618,418
297,8220DB000419,"Ballsbridge, Merrion Road",53.3239951058417,-6.22044950312351,419
298,8220DB000420,"Ballsbridge, Merrion Road",53.3219108012885,-6.217503921727491,420
299,8220DB000421,"Merrion, Merrion Road (Ailesbury Road)",53.32000517942139,-6.21449112042242,421
300,8220DB000422,"Merrion, Saint Vincent's Hospital",53.318064191863,-6.2103242807078205,422
301,8220DB000423,"Merrion, Herbert Avenue",53.31714850413421,-6.207405658281179,423
302,8220DB000424,"Merrion, Merrion Gates",53.315394380198796,-6.203726866213441,424
303,8220DB000476,"Merrion, Merrion Gates",53.315751526370605,-6.204762522732639,476
304,8220DB000477,"Merrion, Merrion Road (Estate Ave)",53.31686305468221,-6.20695232009333,477
305,8220DB000478,"Merrion, Saint Vincent's Hospital",53.3181142989155,-6.211267825308879,478
306,8220DB000479,"Merrion, Merrion Shopping Centre",53.319143967621,-6.2134012866997095,479
307,8220DB000480,"Merrion, Merrion Road (Ailesbury Road)",53.3208499799872,-6.2162872053677,480
308,8220DB000481,"Ballsbridge, Merlyn Road",53.3223446397546,-6.21826644297958,481
309,8220DB000482,"Ballsbridge, Merrion Road",53.3247277780849,-6.22196529496771,482
310,8220DB000483,"Ballsbridge, Merrion Road",53.3259975565216,-6.223939234450589,483
311,8220DB000485,"Ballsbridge, Merrion Road RDS",53.3283521017921,-6.22875091277159,485
312,8220DB000486,"Ballsbridge, Merrion Road RDS",53.32839879740789,-6.228869088131599,486
313,8220DB000487,"Ballsbridge, American Embassy",53.330800948997,-6.233874524232401,487
314,8220DB000488,"Dublin City South, Lansdowne Park",53.3330985546294,-6.23607694701108,488
315,8220DB000489,"Dublin City South, Northumberland Road",53.3349420031452,-6.2373523126562,489
316,8220DB000490,"Dublin City South, Northumberland Road",53.336626630316296,-6.238829547719799,490
317,8220DB000491,"Dublin City South, Lower Mount Street",53.3378140535091,-6.241333510886741,491
318,8220DB000492,"Dublin City South, Lower Mount Street",53.338584685142,-6.24361446215909,492
319,8220DB000493,"Merrion Square, Holles Street",53.3398534163774,-6.24737682273898,493
320,8220DB000494,Clare Street,53.3413358933187,-6.251626258050161,494
321,8220DB000495,"Pearse Station, Outside Train Station",53.3435913198129,-6.249746705169031,495
322,8220DB000496,Busáras,53.3494802300675,-6.25231438637282,496
323,8220DB000497,Outside Connolly Station,53.3505260753991,-6.250694343223819,497
324,8220DB000499,"Ballybough, Summerhill Parade",53.357504675521604,-6.2491164469991896,499
325,8220DB000500,"North Strand, Ballybough Road (Foster Terrace)",53.3590360763177,-6.24628915528184,500
326,8220DB000501,"North Strand, Ballybough Road (Clonliffe Road)",53.360705684688206,-6.24369637425144,501
327,8220DB000509,"North Strand, Ballybough Road (Clonliffe Road)",53.3606013493589,-6.24332503950194,509
328,8220DB000510,"North Strand, Ballybough Road (Foster Terrace)",53.359172736644,-6.245802758049309,510
329,8220DB000511,"Ballybough, Summerhill Parade",53.3575155897132,-6.24863523337024,511
330,8220DB000513,"Summerhill, Summerhill Road",53.3552575357682,-6.254015974458519,513
331,8220DB000515,"Connolly Station, Amiens Street",53.3536082775389,-6.248194548003419,515
332,8220DB000516,"North Strand, Marino College of Further Education",53.35572883289579,-6.245703839530099,516
333,8220DB000518,"Ballybough, North Strand Road",53.3589392077014,-6.24092940256284,518
334,8220DB000519,"North Strand, Annesley Bridge",53.3603387601165,-6.239534528658969,519
335,8220DB000521,"Ballybough, Fairview Park",53.361637047048205,-6.23797846068553,521
336,8220DB000522,"Fairview, Fairview Footbridge",53.3632889490287,-6.23541597469797,522
337,8220DB000523,"Fairview, Marino College Fairview",53.3642686011137,-6.23176916143433,523
338,8220DB000525,"Clontarf, Howth Road",53.364960873510896,-6.226330911163171,525
339,8220DB000526,"Clontarf, Copeland Grove",53.36686957214789,-6.2211122785803195,526
340,8220DB000527,"Clontarf, Howth Road (St.Lawrence Road)",53.3680198762275,-6.21267888054445,527
341,8220DB000528,"Clontarf, Castle Grove",53.3692640806971,-6.20993674463178,528
342,8220DB000529,"Killester, Howth Road (Collins Avenue)",53.3705942520024,-6.20753649495154,529
343,8220DB000530,"Killester, Howth Road (Castle Ave)",53.371224532344506,-6.20402332968282,530
344,8220DB000531,"Killester, Howth Road (Furry Park Road)",53.3732170200372,-6.20144457927604,531
345,8220DB000532,"Raheny, Howth Road (Brookwood Avenue)",53.375718621976006,-6.19389907203514,532
346,8220DB000533,"Raheny, Howth Road (Ennafort Park Estate)",53.3775832778026,-6.187056139524421,533
347,8220DB000534,"Raheny, Garda Retirement Home",53.3786553262457,-6.181899870786509,534
348,8220DB000535,"Raheny, Raheny Shopping Centre",53.380231731956606,-6.1774132643626,535
349,8220DB000536,"Raheny, Raheny Village",53.3804237567076,-6.17351172677606,536
350,8220DB000537,"Raheny, Avondale Park",53.3799012003047,-6.168152634977259,537
351,8220DB000538,"Raheny, Howth Road (Maywood Road)",53.3801380645862,-6.164264183188549,538
352,8220DB000539,"Raheny, Howth Road (The Old Sheiling)",53.3806736618095,-6.15935564153758,539
353,8220DB000540,"Raheny, Howth Road (Greendale Road)",53.381336276367904,-6.1551179435333,540
354,8220DB000541,Howth Road (Blackbanks),53.3818727077497,-6.15202806844666,541
355,8220DB000542,"Bayside, Dublin Road (Kilbarrack Road)",53.3836619200447,-6.14626794992908,542
356,8220DB000591,"Bayside, Dublin Road (Kilbarrack Road)",53.3843156154467,-6.144375376760429,591
357,8220DB000592,Dublin Road (James Larkin Road),53.382717376036204,-6.148533881521209,592
358,8220DB000593,Howth Road (Blackbanks),53.3819577847972,-6.15113744949444,593
359,8220DB000594,"Raheny, Howth Road (Greendale Road)",53.38116336555671,-6.15556136213264,594
360,8220DB000595,"Raheny, Berehaven Place",53.38059995044121,-6.15923856299832,595
361,8220DB000596,"Raheny, Howth Road (Maywood Road)",53.380252843323795,-6.161793972076911,596
362,8220DB000597,"Raheny, Howth Road (Maywood Road)",53.380019012908704,-6.164705234935139,597
363,8220DB000598,"Raheny, Howth Road (Avondale Park)",53.37983534289129,-6.16913254174957,598
364,8220DB000599,"Raheny, Raheny Library",53.3803353283041,-6.17301945078285,599
365,8220DB000600,"Raheny, Howth Road",53.380240549861796,-6.1762253505970595,600
366,8220DB000601,"Raheny, Howth Road (Cill Eanna Estate)",53.3792502012084,-6.179649825114111,601
367,8220DB000602,"Raheny, Cill Eanna Estate (Opposite Ennafort Park)",53.37814252479011,-6.183049071009901,602
368,8220DB000603,"Raheny, Ennafort Park Estate",53.377382159008704,-6.18742542966496,603
369,8220DB000604,"Raheny, All Saints Road",53.376354644009396,-6.19079085973447,604
370,8220DB000605,"Raheny, Howth Road (Brookwood Avenue)",53.375650516243404,-6.19355625373816,605
371,8220DB000606,"Killester, Saint Bridget's Church",53.37470897840079,-6.19786466034239,606
372,8220DB000607,"Killester, Howth Road (Furry Park Road)",53.3724998515806,-6.2021661486438795,607
373,8220DB000608,"Killester, Howth Road (Castle Ave)",53.3711273073464,-6.20413262235646,608
374,8220DB000609,"Clontarf, Castle Grove",53.369837544077704,-6.208620256489691,609
375,8220DB000610,"Clontarf, Ashbrook Estate",53.368362301306604,-6.211537455274381,610
376,8220DB000611,"Clontarf, Howth Road (Hollybrook Park)",53.3667557998784,-6.21890801167765,611
377,8220DB000612,"Clontarf, Howth Road",53.3658698711413,-6.22399402584046,612
378,8220DB000613,"Clontarf, Howth Road",53.3646174709891,-6.22681099838462,613
379,8220DB000614,"Fairview, Pedestrian Footbridge",53.363692787366396,-6.23355106826557,614
380,8220DB000615,"Ballybough, Fairview Park",53.361906416454104,-6.237351298930349,615
381,8220DB000616,"North Strand, Annesley Bridge",53.3599170181452,-6.239581965127161,616
382,8220DB000617,"Ballybough, North Strand Road",53.357894521070996,-6.24200909637447,617
383,8220DB000618,"North Strand, Newcomen Bridge",53.3561117066802,-6.2448467990968295,618
384,8220DB000619,"Connolly Station, Amiens Street",53.3540446250405,-6.24730533351984,619
385,8220DB000620,"Dublin, Talbot Street (opp Bank of Ireland)",53.351193477577404,-6.25146316296385,620
386,8220DB000621,"Dublin, Talbot Street",53.3505177759152,-6.25626764847564,621
387,8220DB000624,"Harmonstown, Harmonstown Road (Ribh Road)",53.380185307130006,-6.18912523804651,624
388,8220DB000625,"Harmonstown, Lein Park",53.3817875653826,-6.186321297283009,625
389,8220DB000626,"Harmonstown, Edenmore Green",53.384494518415096,-6.18405641915907,626
390,8220DB000627,"Edenmore, Edenmore Grove",53.385407017017,-6.18200303261637,627
391,8220DB000628,"Edenmore, Edenmore Grove",53.3869549963204,-6.18390657920362,628
392,8220DB000629,"Edenmore, Edenmore Park",53.386527969522895,-6.185969424714941,629
393,8220DB000630,"Edenmore, Springdale Road",53.387243995851094,-6.18932175227289,630
394,8220DB000633,"Edenmore, Tonlegee Drive",53.3896443404821,-6.189355180444809,633
395,8220DB000634,"Edenmore, Tonlegee Avenue",53.390275196652496,-6.18414110921006,634
396,8220DB000635,"Edenmore, Glenwood Road (Tonlegee Rd)",53.389022536065795,-6.18392380127648,635
397,8220DB000636,"Edenmore, Tonlegee Drive",53.388858659516494,-6.18674234809099,636
398,8220DB000637,"Edenmore, Springdale Road",53.3877918262024,-6.18988485424521,637
399,8220DB000638,"Edenmore, Springdale Road",53.386762321324206,-6.18837999607754,638
400,8220DB000639,"Edenmore, Edenmore Park",53.3863330185323,-6.18674446075596,639
401,8220DB000640,"Edenmore, Edenmore Grove",53.386705385199605,-6.18345113980026,640
402,8220DB000641,"Edenmore, Edenmore Grove",53.3858263828452,-6.182391081461951,641
403,8220DB000642,"Harmonstown, Edenmore Green",53.384731848304995,-6.1831142289761605,642
404,8220DB000643,"Edenmore, Saint Joseph's Hospital",53.3835661358812,-6.183885468341099,643
405,8220DB000644,"Harmonstown, Lein Park",53.3823625142317,-6.185710576646169,644
406,8220DB000645,"Harmonstown, Harmonstown Road (Ribh Road)",53.3801688019244,-6.18862988048628,645
407,8220DB000649,"Raheny, All Saints Road",53.3762836659106,-6.189666567087441,649
408,8220DB000650,All Saints Road (Sybill Hill Ave),53.375402853733796,-6.18552548323385,650
409,8220DB000651,"Raheny, All Saints Road (Near Tennis Courts Car Park)",53.3754794507715,-6.1799309090613,651
410,8220DB000653,"Raheny, Main Street Raheny",53.3794630466244,-6.175341638962211,653
411,8220DB000654,"Raheny, Watermill Road",53.379210075798,-6.17702098083078,654
412,8220DB000655,"Raheny, Watermill Drive",53.377738671384705,-6.17543040232881,655
413,8220DB000656,"Raheny, Watermill Drive",53.376470200796206,-6.17770919175966,656
414,8220DB000657,"Raheny, All Saints Park",53.3755453978778,-6.1789511170447895,657
415,8220DB000658,"Raheny, All Saints Road (Waterfall Road)",53.374980048481504,-6.18313861991686,658
416,8220DB000659,All Saints Road (Sybill Hill Ave),53.3752374406804,-6.185878213489901,659
417,8220DB000664,"Donnycarney, Donnycarney Church",53.3747192481248,-6.21950756213934,664
418,8220DB000665,"Donnycarney, Malahide Road Clontarf Golf Club",53.37246631779329,-6.222126461226231,665
419,8220DB000666,"Clontarf, Mount Temple School",53.37023312412129,-6.224263347846541,666
420,8220DB000667,"Marino, Malahide Road (Griffith Avenue)",53.367981645465896,-6.22698684651141,667
421,8220DB000668,"Marino, East South B. Sub Station",53.3645749808589,-6.22939731689476,668
422,8220DB000669,"Marino, Malahide Road (Crescent Place)",53.3663170047508,-6.22867890531785,669
423,8220DB000670,"Marino, Malahide Road (Griffith Avenue)",53.368956114808505,-6.226029663892111,670
424,8220DB000671,"Clontarf, Mount Temple School",53.370716841968495,-6.22415305315518,671
425,8220DB000672,"Donnycarney, junction Donnycarney Road",53.3734663500286,-6.22107782075337,672
426,8220DB000674,"Donnycarney, Collins Avenue East",53.3746860705057,-6.21608209235965,674
427,8220DB000675,Amiens Street Junction Upper Sheriff Str,53.352858137716204,-6.2485257594770705,675
428,8220DB000709,"Killester, Saint Bridget's Church",53.3750380598504,-6.19703913201504,709
429,8220DB000722,"Raheny, Outside Train Station",53.38111369965079,-6.17572202474466,722
430,8220DB000723,"Edenmore, East South B. Sub Station",53.3841517880035,-6.17572742205128,723
431,8220DB000724,"Edenmore, Grange Woodbine Community Centre",53.3869554629401,-6.174510011409071,724
432,8220DB000725,"Edenmore, Raheny Road",53.3895723720634,-6.1704888112675595,725
433,8220DB000726,"Donaghmede, Millbrook Avenue",53.391748351421796,-6.167613780669661,726
434,8220DB000727,"Donaghmede, Donaghies Estate",53.3937048518631,-6.16683802482072,727
435,8220DB000728,"Donaghmede, Church Of The Holy Trinity",53.3953162106826,-6.163490594723769,728
436,8220DB000729,"Donaghmede, Scoil Bride",53.3965584587976,-6.16244459517592,729
437,8220DB000730,"Donaghmede, Hole in the Wall Road",53.39816669772839,-6.16181886879421,730
438,8220DB000738,"Donaghmede, Grangemore Road",53.397600355030406,-6.16181320548643,738
439,8220DB000739,"Donaghmede, Donaghmede Shopping Centre",53.3951450858597,-6.16346788917263,739
440,8220DB000740,"Donaghmede, Donaghies Estate",53.3931412776214,-6.16701261526443,740
441,8220DB000741,"Donaghmede, Millbrook Avenue",53.3919077252208,-6.167456571190519,741
442,8220DB000742,"Raheny, De La Salle School",53.38982341384521,-6.16986158795113,742
443,8220DB000743,"Raheny, Woodbine Park",53.38802486380239,-6.17273523820562,743
444,8220DB000744,"Raheny, Raheny Road",53.3852706961919,-6.17483767880914,744
445,8220DB000745,"Raheny, Outside Train Station",53.381343565605,-6.1754716767302895,745
446,8220DB000746,Kildare Street (Natural History Museum),53.3402246009318,-6.2555313125422405,746
447,8220DB000747,"Dublin City South, Archbishop Statue",53.3399308030255,-6.25572351873597,747
448,8220DB000748,"Stephen's Green, Huguenot Cemetery",53.338509534394596,-6.255030666007181,748
449,8220DB000749,"Dublin City South, Lower Pembroke Street",53.3376207009507,-6.250802147184781,749
450,8220DB000750,"Dublin City South, Lower Baggot Street",53.3365710800751,-6.24848750327114,750
451,8220DB000751,"Dublin City South, Lower Baggot Street",53.335320547924795,-6.24657163552756,751
452,8220DB000752,"Dublin City South, Upper Baggot Street",53.333671654232795,-6.24446202003114,752
453,8220DB000753,"Dublin City South, Saint Martins House",53.3324978619639,-6.24348919684675,753
454,8220DB000754,"Dublin City South, Waterloo Road (Burlington Road)",53.3307837823714,-6.24428032727381,754
455,8220DB000755,"Dublin City South, Waterloo Road (Wellington Lane)",53.328828045695495,-6.245141367987701,755
456,8220DB000756,"Donnybrook, Bloomfield Avenue",53.3263997617783,-6.2425987467031,756
457,8220DB000757,"Donnybrook, Morehampton Road",53.3240813371564,-6.23958650985938,757
458,8220DB000758,"Donnybrook, Morehampton Road",53.32268694295279,-6.23767738043155,758
459,8220DB000759,"Donnybrook, Old Wesley Rugby Football Club",53.3203488508422,-6.23334551683733,759
460,8220DB000760,"Donnybrook, Church of the Sacred Heart",53.3183301872864,-6.2305619559303995,760
461,8220DB000761,"Donnybrook, R.T.E. Television Studios",53.3161004007969,-6.227487213707009,761
462,8220DB000762,RTE,53.3145170648479,-6.22437094406494,762
463,8220DB000763,"Donnybrook, Belfield Court",53.3123201447816,-6.22110031908025,763
464,8220DB000769,"Donnybrook, Belfield Court",53.311901092315,-6.22132785711803,769
465,8220DB000770,N11 Opp. R.T.E.,53.31463618755979,-6.22573181130972,770
466,8220DB000771,"Donnybrook, Teresian School",53.315880069241295,-6.227781522428041,771
467,8220DB000772,"Donnybrook, Donnybrook Bus Garage",53.318999272378704,-6.23143489969715,772
468,8220DB000773,"Donnybrook, Donnybrook Road",53.3199163484772,-6.233273319310809,773
469,8220DB000774,"Donnybrook, Donnybrook Garda Station",53.32161212356171,-6.2354999964197395,774
470,8220DB000775,"Donnybrook, Morehampton Road",53.3234897098036,-6.239085447216129,775
471,8220DB000776,"Donnybrook, Morehampton Road",53.3254792402812,-6.24173582106076,776
472,8220DB000777,"Donnybrook, Morehampton Road",53.3269721601091,-6.243626143648711,777
473,8220DB000779,"Dublin City South, Waterloo Road (Wellington Lane)",53.328688736329205,-6.245447362648539,779
474,8220DB000780,"Dublin City South, Waterloo Road (Burlington Road)",53.3310197625714,-6.244435796214991,780
475,8220DB000781,"Dublin City South, Saint Martins House",53.332636358802205,-6.24373876417184,781
476,8220DB000782,"Dublin City South, Upper Baggot Street",53.3335838144569,-6.24460076754333,782
477,8220DB000783,"Dublin City South, Lower Baggot Street",53.335308537374296,-6.24697756396985,783
478,8220DB000784,"Dublin City South, Lower Baggot Street",53.3364567280898,-6.248657371465139,784
479,8220DB000785,"Dublin City South, Lower Pembroke Street",53.3371058976017,-6.25185937348663,785
480,8220DB000786,"Dublin City South, Lower Leeson Street",53.3351467148271,-6.25617403577258,786
481,8220DB000790,St Stephens Green North,53.33930685909229,-6.257926526166379,790
482,8220DB000791,"Stephen's Green, Stephens Court",53.339115152290894,-6.257724096642179,791
483,8220DB000792,"Dublin City South, Dawson Street",53.340600380900796,-6.25848953123279,792
484,8220DB000793,"Dublin City South, Dawson Street",53.3401437926548,-6.25861326308715,793
485,8220DB000795,"Phibsborough, Eccles Street",53.3587400432977,-6.26972427815325,795
486,8220DB000796,"Phibsborough, Mater Hospital, Berkeley Road",53.3600182144434,-6.26985278581192,796
487,8220DB000797,"Phibsborough, Post Office",53.3607260028205,-6.27466216472105,797
488,8220DB000798,"Cabra East, North Circular Road (Rathdown Road)",53.359476636142304,-6.2796407009401705,798
489,8220DB000799,"Cabra East, North Circular Road (Charleville Road)",53.3588687100101,-6.28173855104546,799
490,8220DB000800,"Cabra East, Grangegorman Hospital",53.35806515152311,-6.2846104289481,800
491,8220DB000801,"Cabra East, North Circular Road",53.3574704998113,-6.287639082435301,801
492,8220DB000802,"Arbour Hill, Drumalee Estate",53.3564983224928,-6.291298722790331,802
493,8220DB000803,"Cabra East, North Circular Road (Oxmanstown Road)",53.3547130307104,-6.29404421386,803
494,8220DB000804,"Cabra East, North Circular Road (O'Devaney Gardens)",53.3536849851855,-6.29569268053352,804
495,8220DB000805,"Arbour Hill, Military Hospital",53.3516034652015,-6.29469416391995,805
496,8220DB000806,"Arbour Hill, Montpelier Gardens",53.3503103783227,-6.29540672124856,806
497,8220DB000807,"Arbour Hill, Phoenix Park Gate",53.3515565121154,-6.29770038608451,807
498,8220DB000808,"Cabra East, North Circular Road (O'Devaney Gardens)",53.35399466951961,-6.295349826494871,808
499,8220DB000809,"Cabra East, North Circular Road (Oxmanstown Road)",53.355260739805004,-6.29337634624951,809
500,8220DB000810,"Cabra East, North Circular Road",53.3570998601571,-6.28999764127673,810
501,8220DB000811,"Cabra East, North Circular Road",53.357672149897205,-6.287285447217441,811
502,8220DB000812,"Cabra East, Grangegorman Hospital",53.358266360652294,-6.284226743738,812
503,8220DB000813,"Cabra East, North Circular Road (Charleville Road)",53.359190046097204,-6.28095937438322,813
504,8220DB000814,"Phibsborough, North Circular Road (Cabra Road)",53.360540015137,-6.276097049299951,814
505,8220DB000817,"Phibsborough, Mater Hospital, Berkeley Road",53.3596462179679,-6.269612438447701,817
506,8220DB000818,"Phibsborough, O'Connell Avenue",53.35848112080811,-6.2692239448313405,818
507,8220DB000819,"Phibsborough, Blessington Court",53.356304020848896,-6.265991985697731,819
508,8220DB000820,"Cabra East, Carnlough Road (Cabra Road)",53.361967795144,-6.29351397958427,820
509,8220DB000821,"Cabra East, Drumcliffe Estate",53.36455190350429,-6.29383143635442,821
510,8220DB000822,"Cabra East, Carnlough Road",53.3671206776262,-6.29182032110431,822
511,8220DB000823,"Cabra East, Carnlough Road (Bannow Road)",53.3682351539493,-6.29118965054413,823
512,8220DB000824,"Cabra, Carnlough Road (Kilkieran Road)",53.3697478518935,-6.2932630949611905,824
513,8220DB000825,"Cabra, Carnlough Road",53.370429439932394,-6.2969328259137205,825
514,8220DB000826,"Cabra, Near Train Station",53.371217854378,-6.30116950755918,826
515,8220DB000827,"Cabra, Ventry Park Estate",53.3713061509822,-6.30358561039431,827
516,8220DB000828,"Cabra, Near Train Station",53.3710448241108,-6.29974867792342,828
517,8220DB000829,"Cabra, Carnlough Road",53.3703968945592,-6.29591219523143,829
518,8220DB000830,"Cabra East, Carnlough Road (Bannow Road)",53.369624371656705,-6.29217098015254,830
519,8220DB000831,"Cabra East, Carnlough Road",53.367661969108,-6.29133281290905,831
520,8220DB000832,"Cabra East, Drumcliffe Estate",53.3636294546039,-6.2940636348917405,832
521,8220DB000833,"Cabra East, Carnlough Road (Cabra Road)",53.3617761473196,-6.29331128383968,833
522,8220DB000834,"Drumcondra (Dublin), Binns Bridge",53.3619793509141,-6.260697936235089,834
523,8220DB000835,"Drumcondra (Dublin), Lower Saint Brigid's Road",53.362560328603,-6.2629431496645305,835
524,8220DB000836,"Drumcondra (Dublin), Claude Road",53.36329150180529,-6.26624916236246,836
525,8220DB000837,"Drumcondra (Dublin), David Road",53.36370153236629,-6.267870355344111,837
526,8220DB000838,"Drumcondra (Dublin), Whitworth Road (Prospect Rd)",53.364319396116294,-6.27018939098142,838
527,8220DB000839,"Drumcondra (Dublin), David Road",53.3637449204179,-6.267763412540011,839
528,8220DB000840,"Drumcondra (Dublin), Whitworth Road",53.3632433495627,-6.26540966607288,840
529,8220DB000841,"Drumcondra (Dublin), Whitworth Road",53.3621221995284,-6.26063201536313,841
530,8220DB000842,"Stephen's Green, Saint Stephen's Green",53.3372519750062,-6.25631338920499,842
531,8220DB000843,"Stephen's Green, Saint Stephen's Green",53.3370024314213,-6.2564587206996,843
532,8220DB000844,"Stephen's Green, Loreto Convent",53.33763187205879,-6.255862398487491,844
533,8220DB000845,"Dublin City South, Leeson Street",53.335453445464296,-6.256251618265411,845
534,8220DB000846,"Dublin City South, Lower Leeson Street",53.3334537329999,-6.2541109084785695,846
535,8220DB000847,"Dublin City South, Upper Leeson Street (Mespil Road)",53.331601445162704,-6.252219619651769,847
536,8220DB000848,"Dublin City South, Sussex Road",53.329727990815705,-6.2488879983548795,848
537,8220DB000849,"Ranelagh, Appian Way",53.327809106243706,-6.247975703802531,849
538,8220DB000850,"Ranelagh, Chelmsford Road",53.326129773473205,-6.2511371784693095,850
539,8220DB000851,"Ranelagh, Chelmsford Road",53.325004409794,-6.2534651091997695,851
540,8220DB000852,"Ranelagh, Ranelagh Village",53.324429266492096,-6.25285808537085,852
541,8220DB000853,"Ranelagh, Sandford Road",53.3225927700056,-6.24836957707265,853
542,8220DB000854,"Milltown (Dublin City), Sandford Road (Larch Grove)",53.32163167127789,-6.24657756321518,854
543,8220DB000855,"Milltown (Dublin City), Sandford Road (Belmont Road)",53.319302298455604,-6.24281536591722,855
544,8220DB000856,"Milltown (Dublin City), Clonskeagh Road (Eglington Road)",53.317655111815206,-6.24082667970819,856
545,8220DB000857,"Milltown (Dublin City), Clonskeagh Hospital",53.316567380096394,-6.23837983033545,857
546,8220DB000858,"Milltown (Dublin City), Beech Hill Estate",53.3140944728122,-6.2383015721788,858
547,8220DB000881,"Milltown (Dublin City), Beech Hill Estate",53.31456356841021,-6.238417331566991,881
548,8220DB000882,"Milltown (Dublin City), Clonskeagh Hospital",53.316704656536295,-6.239154676493059,882
549,8220DB000883,"Clonskeagh, Clonskea Road (Milltown Road)",53.31768515732921,-6.24103558331433,883
550,8220DB000884,"Clonskeagh, Milltown Park",53.319996991214104,-6.244212844427941,884
551,8220DB000885,"Milltown (Dublin City), Sandford Road (Larch Grove)",53.3212589673318,-6.246292621230411,885
552,8220DB000886,"Ranelagh, Sandford Road",53.322597396222704,-6.24868463259583,886
553,8220DB000887,"Ranelagh, Ranelagh",53.3242077457399,-6.25246180680163,887
554,8220DB00089,"Whitehall (Dublin City), Griffith Avenue (Lambay Road)",53.3780271154986,-6.261592149887591,89
555,8220DB000893,"Rathmines, Cowper Road",53.3160725163363,-6.2591581800642,893
556,8220DB000894,"Rathmines, Cowper Road",53.3151931375336,-6.26419198051229,894
557,8220DB000895,"Rathgar, Upper Rathmines Road",53.3139322642579,-6.26401801846629,895
558,8220DB000896,"Rathgar, Palmerston Park",53.313372149630204,-6.2613542468480805,896
559,8220DB000897,"Rathgar, Palmerston Lane",53.314299620262005,-6.25838984601839,897
560,8220DB000903,"Ranelagh, Chelmsford Road",53.3255834292541,-6.252495656737441,903
561,8220DB000904,"Ranelagh, Appian Way",53.3274174409115,-6.248847515740781,904
562,8220DB000906,Leeson Street Upper,53.32881076597221,-6.24763437727541,906
563,8220DB000907,"Ranelagh, Saint John's Ambulance Head Quarters",53.3297193588566,-6.250750108604669,907
564,8220DB000908,"Dublin City South, Upper Leeson Street (Mespil Road)",53.3311542855348,-6.25237303421842,908
565,8220DB000909,"Dublin City South, Lower Leeson Street",53.333147659918005,-6.254078363855291,909
566,8220DB000956,"Kilbarrack, Naomh Barrog GAA Club",53.38983180211039,-6.1529011457283795,956
567,8220DB000958,"Donaghmede, Saint Donagh's Estate",53.390952693261994,-6.16379876732403,958
568,8220DB000959,"Donaghmede, Kilbarrack Road",53.3910106372241,-6.166983892113779,959
569,8220DB000960,"Edenmore, Tonlegee Road",53.391176274861095,-6.17192361400687,960
570,8220DB000961,"Edenmore, Saint Monica's Youth Centre",53.3910945956223,-6.17657322269722,961
571,8220DB000962,"Edenmore, Tonlegee Road",53.3908317729634,-6.18291454790952,962
572,8220DB000963,"Edenmore, Tonlegee Road #1",53.3905565532176,-6.186685205719909,963
573,8220DB000964,"Edenmore, Smurfits",53.3901106957452,-6.19225228317503,964
574,8220DB000965,"Coolock, Tonlegee Road",53.388890083913296,-6.19652888129107,965
575,8220DB000966,"Coolock, Saint Brendan's Terrace",53.3912605396212,-6.2029241829820005,966
576,8220DB000967,"Coolock, Woodville",53.3922920610154,-6.2063691423389695,967
577,8220DB000968,"Coolock, Woodville Park",53.39380454177879,-6.21072636064262,968
578,8220DB000969,"Coolock, Northside Shopping Centre",53.3956824564158,-6.215489638220401,969
579,8220DB000972,"Kilmore (Dublin City), Woodlawn Estate",53.396996042884105,-6.23492379932213,972
580,8220DB000979,"Glasnevin, Finglas Credit Union",53.389953808589404,-6.29710063600173,979
581,8220DB000980,"Finglas, Mellowes Crescent",53.3898772869677,-6.30308771071007,980
582,8220DB000981,"Finglas, Mellowes Road",53.389827770418904,-6.30656281119104,981
583,8220DB000983,"Finglas South, Mellowes Road",53.3901416743196,-6.310955692220629,983
584,8220DB000984,"Finglas, Mellowes Road",53.389911388025894,-6.3067549495513795,984
585,8220DB000985,"Finglas, Mellowes Crescent",53.389978648871605,-6.3038955821799805,985
586,8220DB000987,"Finglas, Finglas Village (Seamus Ennis Road)",53.390282164876204,-6.29932779808204,987
587,8220DB000988,"Finglas, Seamus Ennis Rd (Ballygall Rd W)",53.389897932164295,-6.295704589194,988
588,8220DB000993,"Kilmore, Auldan Grange Estate",53.397702596997,-6.22922517485579,993
589,8220DB000997,"Coolock, Oscar Traynor Road",53.3941495045613,-6.21155395670719,997
590,8220DB000998,"Coolock, Armstrong Walk",53.393574767844896,-6.20978868590317,998
591,8220DB000999,"Coolock, Jennings Funeral Home",53.3922410515283,-6.2059653079864905,999
592,8220DB001000,"Coolock, Coolock Garda Stn",53.39098307668,-6.20180818492748,1000
593,8220DB001001,"Coolock, Coolock Village",53.390081121155205,-6.199214991230309,1001
594,8220DB001002,"Coolock, Tonlegee Road",53.38921950302011,-6.1951317121114196,1002
595,8220DB001003,"Edenmore, Tonlegee Road #3",53.390325342846204,-6.19099522846236,1003
596,8220DB001004,"Edenmore, Tonlegee Road #1",53.390718998951996,-6.18613701145048,1004
597,8220DB001005,"Edenmore, Tonlegee Road",53.3910057583144,-6.18194483849172,1005
598,8220DB001006,"Edenmore, Saint Monica's Youth Centre",53.39117035605129,-6.17682559538368,1006
599,8220DB001007,"Edenmore, Tonlegee Road #4",53.391220257387296,-6.17244798884621,1007
600,8220DB001008,"Donaghmede, Kilbarrack Road",53.3911267142898,-6.16693379574114,1008
601,8220DB001009,"Donaghmede, Saint Donagh's Estate",53.391089075657504,-6.16448455072243,1009
602,8220DB001012,"Kilbarrick, Kilbarrack Parade",53.390295155195595,-6.15264050908237,1012
603,8220DB001013,"Dublin City South, Saint Stephen's Green House",53.3354815055116,-6.25755688072017,1013
604,8220DB001014,"Dublin City South, Earlsfort Terrace",53.335676496237,-6.2573687364943895,1014
605,8220DB001015,"Dublin City South, Earlsfort Terrace",53.33273035341679,-6.25996635506886,1015
606,8220DB001016,"Portobello, Richmond Street Sth (Lennox Street)",53.331036174383,-6.2645997550192405,1016
607,8220DB001017,"Rathmines, Grove Park",53.329299651159296,-6.26447506533583,1017
608,8220DB001018,"Ranelagh, Rathmines Road Lower (Richmond Hill)",53.327570985712605,-6.2648905467881795,1018
609,8220DB001019,"Rathmines, Military Road",53.3265475976213,-6.264977117746789,1019
610,8220DB001020,"Rathmines, Rathmines Town Centre",53.325138383795995,-6.26510936447965,1020
611,8220DB001021,"Rathmines, Rathmines Avenue",53.3213802466074,-6.2656521259785904,1021
612,8220DB001022,"Rathmines, Summerville Park",53.319521743825504,-6.264556674161629,1022
613,8220DB001023,"Rathmines, Maxwell Road",53.3170461890185,-6.26491228899521,1023
614,8220DB001024,"Rathmines, Frankfort Avenue",53.315852343074894,-6.265020756111469,1024
615,8220DB001025,"Rathgar, Dartry Road (Sunbury Gardens)",53.31159986545939,-6.262476823046369,1025
616,8220DB001026,"Rathgar, Dartry Road",53.309105770785706,-6.26032708219741,1026
617,8220DB001027,"Dartry, South Hill",53.308737940033105,-6.257910941128171,1027
618,8220DB001028,"Dartry, Lower Churchtown Road",53.3084991105589,-6.2557146811215,1028
619,8220DB001062,"Dartry, Lower Churchtown Road",53.3082596341802,-6.255319265868899,1062
620,8220DB001063,"Dartry, South Hill",53.308572081539495,-6.258863118230781,1063
621,8220DB001064,"Rathgar, Dartry Road",53.3094291383453,-6.260929220589,1064
622,8220DB001065,"Rathgar, Dartry Road (Sunbury Gardens)",53.311829024900206,-6.26278268022841,1065
623,8220DB001066,"Rathgar, Upper Rathmines Road",53.313753480582896,-6.26408530832738,1066
624,8220DB001067,"Rathmines, Upper Rathmines Road",53.317050771228196,-6.265227306441981,1067
625,8220DB001068,"Rathmines, Rathmines Avenue",53.320558444719,-6.26538523670884,1068
626,8220DB001069,"Rathmines, Lower Rathmines Road",53.323285263611496,-6.2656198954127404,1069
627,8220DB001070,"Rathmines, Lower Rathmines Road",53.3249801839816,-6.26535598291685,1070
628,8220DB001071,"Ranelagh, Rathmines Road Lower (Richmond Hill)",53.327218036165895,-6.26472471169493,1071
629,8220DB001072,"Portobello, Richmond Street Sth (Lennox Street)",53.331123601216404,-6.264431044943381,1072
630,8220DB001074,"Kelly's Corner, Charlotte Way",53.3337954595226,-6.263977200724661,1074
631,8220DB001076,"Rathmines, Lower Rathmines Road",53.3231305919114,-6.26549106260883,1076
632,8220DB001077,"Rathmines, Rathmines Garda Station",53.321601899251604,-6.2666789145496296,1077
633,8220DB001078,"Rathmines, Rathgar Road",53.3194127648938,-6.26880907035696,1078
634,8220DB001079,"Rathgar, Spar Rathgar Road",53.3166546241928,-6.27075187426881,1079
635,8220DB001080,"Rathgar, Rathgar Road, Auburn Villas",53.31490919871779,-6.27187306349646,1080
636,8220DB001081,"Rathgar, Rathgar Road (Highfield Road)",53.31264970285629,-6.2734951734877304,1081
637,8220DB001082,"Rathgar, Terenure Road East",53.3116759487029,-6.27577063203852,1082
638,8220DB001083,"Terenure, Brighton Road",53.311145561259,-6.27825325307526,1083
639,8220DB001085,"Terenure, Terenure Road East",53.310099485224804,-6.2823773139730505,1085
640,8220DB001086,"Terenure, Terenure Road West",53.3096695705149,-6.285606083004629,1086
641,8220DB001087,"Terenure, Garda Station",53.3103351137685,-6.28939126007519,1087
642,8220DB001088,"Kimmage, Terenure Road West",53.3109735887837,-6.29317763255717,1088
643,8220DB001089,"Terenure, Lavarna Grove",53.3116555855459,-6.297502660951481,1089
644,8220DB001090,"Kimmage, Kimmage Road West (Fortfield Road)",53.3121038877658,-6.300576440603809,1090
645,8220DB001091,"Kimmage, Whitehall Road (Kimmage Road West)",53.3124406081629,-6.30529057738079,1091
646,8220DB001092,"Kimmage, Whitehall Road",53.3107438359013,-6.309229696890349,1092
647,8220DB001093,"Kimmage, Whitehall Road",53.3099785512678,-6.311676084697241,1093
648,8220DB001113,"Walkinstown, Glendale Park",53.3090231356625,-6.31530040274471,1113
649,8220DB001114,"Kimmage, Manor Grove",53.310343734942506,-6.31080626120506,1114
650,8220DB001115,"Kimmage, Whitehall Gardens",53.311598433175,-6.3073799923059,1115
651,8220DB001117,"Terenure, Lavarna Grove",53.31189064985829,-6.29822868798702,1117
652,8220DB001118,"Kimmage, Terenure Road West",53.3113669927789,-6.29491782827779,1118
653,8220DB001119,"Kimmage, Terenure Road West",53.3109356902408,-6.292413763447519,1119
654,8220DB001120,"Terenure, Garda Station",53.3101981052294,-6.28798605930363,1120
655,8220DB001121,"Terenure, Terenure Cross Library",53.309001597636794,-6.28540774793682,1121
656,8220DB001122,"Terenure, Templeogue Road",53.307219634285794,-6.288375352529041,1122
657,8220DB001123,"Terenure, Lakeland's Park",53.305577024734106,-6.291037030140069,1123
658,8220DB001124,"Terenure, Templeogue Road",53.30417281767071,-6.2934038975232,1124
659,8220DB001159,"Terenure, Bushy Park",53.302390220209396,-6.29634084228485,1159
660,8220DB001160,"Rathfarnham, Terenure College",53.3043935295018,-6.293125001715269,1160
661,8220DB001161,"Terenure, Templeogue Road",53.3060631361465,-6.29046240113909,1161
662,8220DB001162,"Terenure, Rathdown Park",53.3077322505964,-6.2877695971447,1162
663,8220DB001163,"Terenure, Templeogue Road #1",53.30887332104879,-6.28586309179703,1163
664,8220DB001164,"Terenure, Terenure Road East",53.3104116361098,-6.28158440093591,1164
665,8220DB001165,"Rathgar, Terenure Road East",53.311712436570396,-6.276429503856139,1165
666,8220DB001166,"Rathgar, Rathgar Road, Winton Avenue",53.3138905067937,-6.27290478405396,1166
667,8220DB001167,"Rathgar, Rathgar Road (Garville)",53.315944909194606,-6.271395948438291,1167
668,8220DB001168,"Rathmines, Rathgar Road",53.3179291684206,-6.27000988256434,1168
669,8220DB001169,"Rathmines, Rathmines Park",53.32005626456161,-6.26855785990236,1169
670,8220DB001170,"Rathmines, Rathgar Road (Lower Rathmines Road)",53.3216895475245,-6.266525248786861,1170
671,8220DB001171,"Dublin, Lower Gardiner Street",53.350317687025296,-6.25426294905821,1171
672,8220DB001172,"Summerhill (Dublin City), Lower Gardiner Street",53.3517433497793,-6.25525621732706,1172
673,8220DB001173,"Summerhill (Dublin City), Lower Gardiner Street",53.3537055683595,-6.25667832329383,1173
674,8220DB001174,"Summerhill (Dublin City), Mountjoy Square Park",53.356186581452896,-6.258545125411309,1174
675,8220DB001175,"Dublin, Upper Gardiner Street",53.3585323776303,-6.2610035953952,1175
676,8220DB001176,"Priorswood, Sports Grounds",53.399355047063395,-6.22187780324994,1176
677,8220DB001177,"Priorswood, Sports Grounds (Opposite)",53.4008973630828,-6.22525748280848,1177
678,8220DB001178,"Priorswood, Business Park",53.403453409690506,-6.21884924282634,1178
679,8220DB001179,"Priorswood, Clonsaugh Und.Est, Business Park",53.39993114959121,-6.218921183099019,1179
680,8220DB001184,"Dublin, Talbot Street (opp Bank of Ireland)",53.3508599227592,-6.253850228000291,1184
681,8220DB001185,"Beaumont (Dublin City), Collins Avenue (Oak Road)",53.3763670141117,-6.221513046469309,1185
682,8220DB001186,"Beaumont (Dublin City), Collins Avenue",53.3776431058353,-6.226329937860401,1186
683,8220DB001187,"Beaumont (Dublin City), Saint Vincent's Court",53.378607508693506,-6.23135544113251,1187
684,8220DB001188,"Beaumont, Grace Park Heights",53.3800184911121,-6.2355960831927595,1188
685,8220DB001190,"Beaumont (Dublin City), Collinswood Estate",53.3801561172398,-6.235785807793911,1190
686,8220DB001191,"Beaumont, Grace Park Heights",53.379217188348,-6.233073840152991,1191
687,8220DB001192,"Beaumont, Collins Avenue (Celtic Park Road)",53.378633196764206,-6.23066293111023,1192
688,8220DB001193,"Beaumont (Dublin City), Grace Park Meadows",53.377992199131,-6.227442768848991,1193
689,8220DB001194,"Beaumont (Dublin City), Collins Avenue",53.3775262086269,-6.22511728190611,1194
690,8220DB001195,"Beaumont (Dublin City), Collins Avenue (Oak Road)",53.3763899322009,-6.221241539641559,1195
691,8220DB001196,"Beaumont (Dublin City), Malahide Road (Killester Avenue)",53.378024641913,-6.21454462622231,1196
692,8220DB001197,"Beaumont (Dublin City), Malahide Road (Kilmore Road)",53.3792322771511,-6.211758333003429,1197
693,8220DB001198,"Artane, Artane Roundabout",53.3825121951908,-6.20691559067282,1198
694,8220DB001199,"Artane, Mask Avenue",53.3849844627771,-6.20276761448293,1199
695,8220DB001200,"Coolock, Chanel College",53.3869626486611,-6.20103048909789,1200
696,8220DB001201,"Coolock, Greencastle Road",53.3907898125494,-6.19614784293642,1201
697,8220DB001202,"Darndale, junction Greencastle Road",53.392501382662495,-6.19342905043287,1202
698,8220DB001203,"Darndale, Priorswood Roundabout",53.396726353628594,-6.18753567030061,1203
699,8220DB001205,"Clare Hall, Malahide Road (N32)",53.4015026048782,-6.181858229286441,1205
700,8220DB001218,"Darndale, Belcamp Lane",53.399705896921795,-6.18428091971538,1218
701,8220DB001219,"Artane, Malahide Road (Daneli Road)",53.3813021270883,-6.20833439206846,1219
702,8220DB001220,"Beaumont (Dublin City), Malahide Road (Killester Avenue)",53.378782271438595,-6.212318325602991,1220
703,8220DB001221,"Donnycarney, Maypark",53.376816500071705,-6.21609825408438,1221
704,8220DB001222,"Artane, Ardcollumn Avenue",53.3840661618351,-6.20685028183393,1222
705,8220DB001223,"Artane, Ardlea Road, Chanel Ave",53.3852506198767,-6.20851435239853,1223
706,8220DB001224,"Artane, Ardlea Road (near A1 pub)",53.386644157794294,-6.21093649115354,1224
707,8220DB001225,"Artane, Ardlea Road (near A1 pub)",53.38685937921411,-6.213904269312531,1225
708,8220DB001226,"Beaumont (Dublin City), Kilmore Road (Ardmore Drive)",53.3881137990287,-6.214844044211639,1226
709,8220DB001227,"Coolock, Kilmore Road (Castlekevin Road)",53.391137310763796,-6.215078366051499,1227
710,8220DB001228,Kilbarron Road (Cromcastle Drive),53.392218126132605,-6.21763440593652,1228
711,8220DB001229,"Kilmore, Kilbarron Road (Dundaniel Road)",53.394348871734294,-6.225514960347691,1229
712,8220DB001231,"Kilmore, Castletimon Road (Castletimon Avenue)",53.3954889982924,-6.22784342643998,1231
713,8220DB001232,"Kilmore, Castletimon Road",53.3952854835247,-6.230483410014481,1232
714,8220DB001233,"Kilmore, Ballyshannon Road",53.3943619873989,-6.23124350090559,1233
715,8220DB001234,"Kilmore, Castletimon Road",53.39468787293671,-6.232613396658441,1234
716,8220DB001235,"Kilmore, Dundaniel Road (Kilbarron Road)",53.394736684699296,-6.225604084189549,1235
717,8220DB001237,Kilbarron Road (Cromcastle Drive),53.39266206021271,-6.21907438467046,1237
718,8220DB001238,"Kilmore (Dublin City), Kilmore Rd, Kilmore Ave",53.391746097937,-6.21491756495442,1238
719,8220DB001239,"Artane, Kilmore Place Apartments",53.3894921658749,-6.21505699528475,1239
720,8220DB001240,"Artane, Ardlea Road (near A1 pub)",53.386818428028,-6.211169732339539,1240
721,8220DB001241,"Artane, Ardlea Road, Chanel Ave",53.385879429368494,-6.209089308046969,1241
722,8220DB001242,"Artane, Ardbeg Road",53.3844919489036,-6.20707292281256,1242
723,8220DB001243,"Darndale, Greencastle Road",53.39490031314649,-6.19991374132292,1243
724,8220DB001244,"Kilmore, Kilbarron Road (Cromcastle Green)",53.392907241618005,-6.22044750297321,1244
725,8220DB001245,"Priorswood, Glin Road",53.397997268688705,-6.20621940955621,1245
726,8220DB001246,"Kilmore, Saint Luke's Church",53.3934932334612,-6.22297928856435,1246
727,8220DB001247,"Darndale, Greencastle Road",53.3950810945047,-6.19998129722481,1247
728,8220DB001248,"Darndale, Coolock Industrial Estate",53.3929893358591,-6.19716752337167,1248
729,8220DB001249,"Darndale, Coolock Drive",53.395180964893896,-6.2012402173603896,1249
730,8220DB001250,"Coolock, Civic Centre Northside",53.3937390060985,-6.20755634582158,1250
731,8220DB001251,"Kilmore, Saint Luke's Church",53.3934573359087,-6.22237931759761,1251
732,8220DB001252,"Coolock, Kilmore Road (Tranquility Grove)",53.3936380322998,-6.21461282858834,1252
733,8220DB001253,"Coolock, Kilmore Road (Tranquility Grove)",53.3939093050201,-6.21472176730549,1253
734,8220DB001254,"Coolock, Bunratty Road",53.395117359828795,-6.211362996430651,1254
735,8220DB001255,"Coolock, Bunratty Road",53.39435350246679,-6.2089740731887195,1255
736,8220DB001256,"Coolock, Northside Civic Centre",53.393630945770205,-6.20694437999343,1256
737,8220DB001258,"Darndale, Priorswood Industrial Park",53.3981874224965,-6.19082713583414,1258
738,8220DB001259,"Darndale, Marigold Estate",53.398590409750206,-6.1948854845088395,1259
739,8220DB001260,"Darndale, Priorswood Road",53.4001778029071,-6.19881868347104,1260
740,8220DB001262,"Darndale, Fairfield Estate",53.40200422921129,-6.20490781615753,1262
741,8220DB001265,"Darndale, Buttercup Estate",53.398221529718704,-6.190705381391901,1265
742,8220DB001266,"Priorswood, Saint Francis Church",53.4020554115132,-6.204725184362309,1266
743,8220DB001267,"Darndale, Ferrycarrig Park",53.4008555065952,-6.20024887014072,1267
744,8220DB001268,"Darndale, Belcamp Avenue",53.399894267541896,-6.197898242934821,1268
745,8220DB001269,"Darndale, Marigold Estate",53.3984289595154,-6.19371931703884,1269
746,8220DB001270,"Edenmore, Darndale Roundabout",53.396497002677094,-6.18722962380566,1270
747,8220DB001272,"Edenmore, Newton Cottages",53.39288238223,-6.19187918573742,1272
748,8220DB001273,"Coolock, Greencastle Road",53.3911092146002,-6.195277288712179,1273
749,8220DB001274,"Coolock, Saint Brendan's Church",53.38893881702929,-6.19797019366682,1274
750,8220DB001275,"Artane, Mask Avenue",53.38558576532989,-6.20211085795644,1275
751,8220DB001276,"Artane, Saint Brendan's Avenue",53.3843305541122,-6.20291542866154,1276
752,8220DB001277,"Artane, Artane Roundabout",53.3826814602055,-6.20621696361687,1277
753,8220DB001278,College Green,53.3442366224341,-6.261300118100049,1278
754,8220DB001279,College Green,53.3442604935958,-6.26170466649104,1279
755,8220DB001280,"Finglas, McKelvey Avenue",53.400196288348894,-6.30314329259755,1280
756,8220DB001282,"Dublin City South, South Great George's Street",53.34234179587909,-6.2645010827273095,1282
757,8220DB001283,"Dublin City South, South Great George's Street",53.341808721906396,-6.26492822950034,1283
758,8220DB001284,"Dublin City South, Redmond's Hill",53.338128350966606,-6.26587355723325,1284
759,8220DB001285,"Dublin City South, Grantham Street",53.334378405588204,-6.2651247542572,1285
760,8220DB001286,"Kelly's Corner, Harrington Street Garda Club",53.3324996494988,-6.26572653484079,1286
761,8220DB001287,"Kelly's Corner, Harrington Street",53.332478372562896,-6.2661177906657,1287
762,8220DB001288,"Dublin City South, South Circular Road (Victoria St)",53.3323227536326,-6.269637622349349,1288
763,8220DB001289,"Leonard's Corner, South Circular Road (Longwood Ave)",53.332129361317996,-6.2730388327702595,1289
764,8220DB001290,"Leonard's Corner, Upper Clanbrassil Street",53.3307310456544,-6.27516731880573,1290
765,8220DB001291,"Harolds Cross, Le Vere Terrace",53.32844661115521,-6.2763104414061,1291
766,8220DB001292,"Harolds Cross, Saint Clare's Convent",53.325624605135005,-6.27819570402243,1292
767,8220DB001293,"Harolds Cross, Harold's Cross Race Track",53.322860363912106,-6.27910262973284,1293
768,8220DB001294,"Harolds Cross, Harold's Cross Road",53.3206000262741,-6.27880330627753,1294
769,8220DB001295,"Harolds Cross, Harold's Cross Road (Rathgar Avenue)",53.317914892306604,-6.27958681712633,1295
770,8220DB001296,"Rathgar, Mount Tallant Avenue",53.3155627461345,-6.28164762292477,1296
771,8220DB001297,"Terenure, Terenure Road North",53.3124096124176,-6.282389614141951,1297
772,8220DB001298,"Terenure, Elm Park Terrace",53.310746992472204,-6.283026651007691,1298
773,8220DB001299,"Terenure, Terenure Road",53.3083957027798,-6.2839013564141295,1299
774,8220DB001300,"Terenure, Rathfarnham Road",53.3062147063348,-6.283493639892191,1300
775,8220DB001335,"Terenure, War Memorial Hall",53.3074174243547,-6.284000619978629,1335
776,8220DB001336,"Terenure, Terenure Road",53.3088660531209,-6.28410759146052,1336
777,8220DB001337,"Terenure, Terenure Road North",53.311179037374,-6.2830693410482,1337
778,8220DB001338,"Terenure, Whitton Road",53.312430386262704,-6.2825838843071695,1338
779,8220DB001339,"Rathgar, Mount Tallant Avenue",53.315023862340404,-6.28229964697715,1339
780,8220DB001340,"Rathgar, Mount Tallant Avenue",53.3164701422711,-6.2809957809054895,1340
781,8220DB001341,"Harolds Cross, Harold's Cross Road (Rathgar Avenue)",53.3192275894617,-6.27899363575735,1341
782,8220DB001342,"Harolds Cross, Harold's Cross Road",53.321345499097994,-6.27938875924039,1342
783,8220DB001343,"Harolds Cross, Shamrock Villas Estate",53.3226672850414,-6.27942564411739,1343
784,8220DB001344,"Harolds Cross, Harold's Cross Road (Greenmount Lane)",53.327171064381,-6.2776079633583795,1344
785,8220DB001345,"Harolds Cross, Le Vere Terrace",53.3287960763033,-6.276236296388809,1345
786,8220DB001347,"Leonard's Corner, Upper Clanbrassil Street",53.3311830098566,-6.27534427274469,1347
787,8220DB001348,"Leonard's Corner, South Circular Road (Longwood Ave)",53.3322495353619,-6.27388983282421,1348
788,8220DB001349,South Circular Road (Carlisle St),53.332385727904395,-6.27088132287856,1349
789,8220DB001350,"Kelly's Corner, Saint Kevin's Church",53.3325610927812,-6.267480811819861,1350
790,8220DB001352,"Dublin City South, Upper Camden Street",53.3344454316074,-6.26540733380828,1352
791,8220DB001353,"Dublin City South, Camden Street",53.33600953362989,-6.26541893799966,1353
792,8220DB001354,"Dublin City South, Aungier Street",53.3390480888871,-6.2660765148576,1354
793,8220DB001355,"Dublin City South, Whitefriars Street Church",53.3400962425888,-6.2658387554144594,1355
794,8220DB001357,"Dublin City South, Exchequer Street",53.342567894405605,-6.26459703020816,1357
795,8220DB001358,"Temple Bar, Central Bank",53.344304713385,-6.26288938939082,1358
796,8220DB001359,College Green,53.34439940636129,-6.261368590433661,1359
797,8220DB001360,"Leonard's Corner, South Circular Road (Clanbrassil St)",53.3319833877849,-6.276618277525519,1360
798,8220DB001362,"Leonard's Corner, National Stadium",53.3312039603907,-6.27990787352224,1362
799,8220DB001363,"Warrenmount, South Circular Road (Clogher Road)",53.3318459312211,-6.28516726502174,1363
800,8220DB001365,"Dolphins Barn, Dolphin's Barn Church",53.3329015319242,-6.2904553130439105,1365
801,8220DB001366,"Rialto, Church Avenue South",53.3351603526097,-6.29441928402361,1366
802,8220DB001367,"Rialto, Rialto Parish Centre",53.335639306634704,-6.2964874155454895,1367
803,8220DB001369,"Kilmainham, South Circular Road (Mountshannon Road)",53.3388672150255,-6.30224552041051,1369
804,8220DB001370,"Kilmainham, Hybreasal House",53.3391885807998,-6.3052512455659295,1370
805,8220DB001371,"Kilmainham, Suir Road (S Circular Rd)",53.3388761644861,-6.3079367063602305,1371
806,8220DB001372,"Goldenbridge, Goldenbridge Avenue",53.338103694548295,-6.309874446423451,1372
807,8220DB001373,"Goldenbridge, Goldenbridge Avenue",53.337774759111994,-6.31203486545017,1373
808,8220DB001374,"Inchicore, Southern Cross Avenue",53.339217710259504,-6.31301407116772,1374
809,8220DB001375,"Inchicore, Bulfin Road",53.3395561606215,-6.312159731856309,1375
810,8220DB001376,"Inchicore, Bulfin Road",53.3395079105859,-6.308752671800881,1376
811,8220DB001377,"Kilmainham, The Paddocks",53.3391633646051,-6.304741655270799,1377
812,8220DB001378,"Kilmainham, South Circular Road (Mountshannon Road)",53.338827874904005,-6.30137608273126,1378
813,8220DB001379,"Kilmainham, Rialto Bridge",53.3373397013519,-6.2991226532094,1379
814,8220DB001380,"Rialto, South Circular Road",53.335641002262605,-6.2959767991197,1380
815,8220DB001381,"Dolphins Barn, South Circular Road (Haroldville Avenue)",53.3351237466265,-6.293745026298809,1381
816,8220DB001382,"Dolphins Barn, Dolphin's Barn Church",53.33317317067021,-6.290594602058929,1382
817,8220DB001383,"Dolphins Barn, South Circular Road (Dolphin Ave)",53.332271078354204,-6.2866066629257205,1383
818,8220DB001384,"Warrenmount, South Circular Road (Clogher Road)",53.331356198183094,-6.282364153756161,1384
819,8220DB001385,"Leonard's Corner, South Circular Road (Greenville Tce)",53.3318004002729,-6.278262271833089,1385
820,8220DB001386,"Harolds Cross, Clogher Road (Parnell Road)",53.3295526186271,-6.28444849901105,1386
821,8220DB001387,"Harolds Cross, Clogher Road (Aughavanagh Road)",53.32804054936771,-6.28680623917293,1387
822,8220DB001388,"Kimmage, Goldstone Court",53.3267732721467,-6.291195788684949,1388
823,8220DB001389,"Dolphins Barn, Saint Bernadette's Church",53.326088223862705,-6.2954567750968895,1389
824,8220DB001391,"Crumlin, Bangor Circle",53.3228221151074,-6.298364123499099,1391
825,8220DB001392,"Crumlin, Clonmacnoise Grove",53.322491015166996,-6.3016197861707495,1392
826,8220DB001394,"Crumlin, Clonmacnoise Road (Kildare Road)",53.3237430594661,-6.29676623092555,1394
827,8220DB001395,"Crumlin, Citizen Advice Centre",53.3247339571109,-6.296291402924111,1395
828,8220DB001396,"Crumlin, Pearse Memorial Park",53.3249002682378,-6.314960137227651,1396
829,8220DB001397,"Crumlin, Pearse Memorial Park",53.3250914014139,-6.313856700052839,1397
830,8220DB001398,"Crumlin, Kildare Road (Windmill Road)",53.3253013793644,-6.31027545066518,1398
831,8220DB001399,"Crumlin, Kildare Road (Clonard Road)",53.3251428005771,-6.30543270310374,1399
832,8220DB001400,"Crumlin, Bangor Circle",53.3236248160114,-6.29981835985768,1400
833,8220DB001401,"Crumlin, Clogher Road",53.325396815892894,-6.29865198476899,1401
834,8220DB001402,"Dolphins Barn, Saint Bernadette's Church",53.325987931117,-6.29598621972538,1402
835,8220DB001403,"Kimmage, Goldstone Court",53.32715406488621,-6.28954413336686,1403
836,8220DB001404,"Harolds Cross, Clogher Road (Aughavanagh Road)",53.32820051811729,-6.286679720516091,1404
837,8220DB001405,"Harolds Cross, Clogher Road (Parnell Road)",53.3298216746236,-6.284407673682179,1405
838,8220DB001406,"Dolphins Barn, Dolphin's Barn",53.3331529314518,-6.2916915268409905,1406
839,8220DB001407,"Dolphins Barn, Crumlin Road, Rutland Avenue",53.331504287227794,-6.29456515958496,1407
840,8220DB001409,"Dolphins Barn, Crumlin Road, Sundrive Road",53.330386209920206,-6.297462480366981,1409
841,8220DB001410,"Drimnagh, Keeper Road (Sundrive Road)",53.3314169223623,-6.29977873066415,1410
842,8220DB001411,"Drimnagh, Keeper Road (Brickfield Road)",53.3320510264254,-6.303282004172339,1411
843,8220DB001412,"Drimnagh, Brickfields Park",53.33268165430571,-6.305914642678361,1412
844,8220DB001413,"Drimnagh, Mourne Road (Brickfields Park)",53.3334413912375,-6.30878249418882,1413
845,8220DB001414,"Drimnagh, Mourne Road",53.333347606472394,-6.31231480140328,1414
846,8220DB001415,"Drimnagh, Mourne Road",53.3324432485375,-6.31637452092601,1415
847,8220DB001417,"Drimnagh, Our Lady Of Mercy School",53.3310322127926,-6.3195681189851705,1417
848,8220DB001418,"Drimnagh, Mourne Road (Cooley Road)",53.3300297592351,-6.32306077006057,1418
849,8220DB001419,"Drimnagh, Errigal Road (Brandon Road)",53.3277177272247,-6.322911243065501,1419
850,8220DB001421,"Drimnagh, Drimnagh Road (Our Lady's Hospital for Sick Children)",53.324950765953105,-6.3204526633011,1421
851,8220DB001423,"Drimnagh, Drimnagh Road (Our Lady's Hospital for Sick Children)",53.3249994890335,-6.319444921926269,1423
852,8220DB001424,"Drimnagh, Crumlin Road (Cooley Road)",53.325662512585296,-6.31674662153124,1424
853,8220DB001425,"Drimnagh, Cooley Road (Our Lady's Hospital for Sick Children)",53.32701317197579,-6.31819475352095,1425
854,8220DB001426,"Drimnagh, Cooley Road",53.32927487884461,-6.3224297711686095,1426
855,8220DB001427,"Drimnagh, Mourne Road (Cooley Road)",53.3302711584121,-6.322330619379059,1427
856,8220DB001428,"Drimnagh, Our Lady Of Mercy School",53.3313588786113,-6.3191498840126705,1428
857,8220DB001429,"Drimnagh, Mourne Road",53.3325932071671,-6.316173419263039,1429
858,8220DB001430,"Drimnagh, Mourne Road",53.3335737954735,-6.31114968646878,1430
859,8220DB001432,"Drimnagh, Mourne Road (Brickfields Park)",53.33349874030561,-6.30838982573818,1432
860,8220DB001433,"Drimnagh, Brickfields Park",53.3325721531997,-6.30579886199235,1433
861,8220DB001434,"Drimnagh, Keeper Road (Brickfield Road)",53.3319924475904,-6.302323379152731,1434
862,8220DB001435,"Drimnagh, Keeper Road (Sundrive Road)",53.3313880462685,-6.299014132466151,1435
863,8220DB001436,"Dolphins Barn, Crumlin Road, Herberton Road",53.33088495769321,-6.29651171993406,1436
864,8220DB001438,"Warrenmount, Saint Thomas Road",53.3363829768538,-6.279414136183849,1438
865,8220DB001439,"Warrenmount, Donore Credit Union",53.3340584156796,-6.28276609921309,1439
866,8220DB001440,"Warrenmount, Donore Avenue",53.3319900593805,-6.2833146521684595,1440
867,8220DB001441,"Crumlin, Kildare Road (Bangor Road)",53.3248749009902,-6.303026333221849,1441
868,8220DB001442,"Crumlin, Kildare Road (Clonard Road)",53.3251668742239,-6.307128154770781,1442
869,8220DB001443,"Dublin City South, Essex Quay",53.3451293906923,-6.26953955862608,1443
870,8220DB001444,"Dublin City South, Merchant's Quay",53.3451184146618,-6.273745471452889,1444
871,8220DB001445,"James's Gate, Ushers Quay",53.3456784102525,-6.2782888396172,1445
872,8220DB001447,"James's Gate, Guinness Store",53.3466296445148,-6.28817874961118,1447
873,8220DB001449,"Phoenix Park, Conyngham Road Bus Garage",53.348152829994895,-6.29789609467721,1449
874,8220DB001450,"Phoenix Park, Wellington Monument",53.3481554042344,-6.30186141311769,1450
875,8220DB001451,"Islandbridge, Bridgewater Business Centre",53.3482782789353,-6.30544644496588,1451
876,8220DB001452,"Islandbridge, Clancy Barracks",53.3455838768388,-6.308121663417361,1452
877,8220DB001453,"Drimnagh, Galtymore Rd (Slievenamon Rd)",53.3345361691504,-6.306757101430381,1453
878,8220DB001454,"Kilmainham, Suir Road (O'Leary Rd)",53.3377755530274,-6.307649910264961,1454
879,8220DB001455,"Drimnagh, GAA Grounds",53.3353851151101,-6.305777460313361,1455
880,8220DB001456,"Drimnagh, Galtymore Road (Galtymore Dr)",53.334873309138004,-6.30898110692312,1456
881,8220DB001457,"Drimnagh, Galtymore Road (Benbulbin Rd)",53.3353026586989,-6.312643038327191,1457
882,8220DB001458,"Drimnagh, Galtymore Road (Sperrin Rd)",53.334770619922296,-6.31697357484942,1458
883,8220DB001459,"Drimnagh, Galtymore Road (Carrow Rd)",53.3340633154256,-6.319719237227731,1459
884,8220DB001460,"Drimnagh, Galtymore Road (Galtymore Pk)",53.332356100824605,-6.321032584202219,1460
885,8220DB001462,"Drimnagh, Galtymore Road (Cooley Road)",53.3304629315882,-6.32382451982613,1462
886,8220DB001463,"Drimnagh, Galtymore Road (Cooley Road)",53.3306239948586,-6.3237731617296395,1463
887,8220DB001464,"Drimnagh, Galtymore Road (Sperrin Rd)",53.3348988015381,-6.316503036703691,1464
888,8220DB001465,"Drimnagh, Galtymore Road (Galtymore Dr)",53.3347967644626,-6.30865378723676,1465
889,8220DB001466,"Drimnagh, Galtymore Rd (Slievenamon Rd)",53.3345289258282,-6.3062468535897604,1466
890,8220DB001467,"Drimnagh, GAA Grounds",53.33565737602329,-6.305961877883839,1467
891,8220DB001468,"Kilmainham, Suir Road (O'Leary Rd)",53.3375666016185,-6.30749299954438,1468
892,8220DB001469,"Drimnagh, Galtymore Road (Benbulbin Rd)",53.3352591593202,-6.31338053815391,1469
893,8220DB001471,"Islandbridge, Islandbridge Court",53.3455323201996,-6.308288920492901,1471
894,8220DB001472,"Islandbridge, Bridgewater Centre",53.3484294679782,-6.305966169661129,1472
895,8220DB001473,"Phoenix Park, Conyngham Road Bus Depot",53.3483059784729,-6.298550898977151,1473
896,8220DB001474,"Heuston Station, Heuston Bridge",53.34794791595839,-6.29236170464093,1474
897,8220DB001476,"Wolfe Tone Quay, Ellis Street",53.347001822417205,-6.28467916066221,1476
898,8220DB001478,"Smithfield, Inns Quay",53.3456460888696,-6.27294312668563,1478
899,8220DB001479,"Dublin, Upper Ormond Quay",53.3459159600278,-6.269237344218861,1479
900,8220DB001480,"Smithfield, Ormond House",53.3456934492702,-6.2706281736218,1480
901,8220DB001481,"Fairview, Philipsburgh Avenue (Melrose Avenue)",53.365053868611895,-6.23989609720882,1481
902,8220DB001482,"Marino, Saint Mary's College",53.3717085781519,-6.2364806455537,1482
903,8220DB001484,"Fairview, Turlough Gardens",53.363697709108,-6.239967029328799,1484
904,8220DB001485,"Fairview, Turlough Gardens",53.36404581769921,-6.239802416922469,1485
905,8220DB001486,"Fairview, Philipsburgh Avenue (Croydon Gardens)",53.3709747783035,-6.238524809022059,1486
906,8220DB001487,"Marino, Griffith Avenue (Charlemont Estate)",53.3718192548925,-6.236671449963731,1487
907,8220DB001488,"Marino, Saint Mary's College",53.37108885542379,-6.23468777023624,1488
908,8220DB001489,"Marino, Saint Vincent De Paul Church",53.3701586652324,-6.231961007602361,1489
909,8220DB001490,Griffith Avenue (Malahide Road),53.36887682169001,-6.22855766174829,1490
910,8220DB001491,Griffith Avenue (Malahide Road),53.3684677618855,-6.22764290979838,1491
911,8220DB001492,"Marino, Saint Vincent De Paul Church",53.3702573904197,-6.23255805716234,1492
912,8220DB001493,"Marino, Saint Mary's College",53.37121340445889,-6.235208627204179,1493
913,8220DB001494,"Marino, Croydon Gardens",53.3706730149261,-6.235741941632531,1494
914,8220DB001495,"Marino, Croydon Park Avenue",53.368755940568505,-6.23556569739488,1495
915,8220DB001496,"Marino, Marino Green",53.3671481166124,-6.23381383826092,1496
916,8220DB001499,"Marino, Brian Road",53.365779488707105,-6.23729658684485,1499
917,8220DB001500,Outside Connolly Station,53.351039588903504,-6.2501625777547805,1500
918,8220DB001505,"Dublin, Parnell Street",53.354028963181804,-6.257896984871401,1505
919,8220DB001506,"Glasnevin, Finglas Road",53.3667778214166,-6.27237390919528,1506
920,8220DB001507,"Glasnevin, Saint Vincent's School",53.368390520312005,-6.27450269164138,1507
921,8220DB001508,"Glasnevin, Claremont Court",53.3699109022633,-6.278333551156809,1508
922,8220DB001509,"Finglas South, Finglas Road",53.3729258340421,-6.28422366048831,1509
923,8220DB001510,"Glasnevin, Finglas Road",53.37690692952129,-6.287310237187111,1510
924,8220DB001511,"Finglas South, Finglas Road (Opp Old Finglas Road)",53.3782345231781,-6.2877529845706706,1511
925,8220DB001512,"Finglas South, Ardmore Hotel",53.382123220288804,-6.291926304041961,1512
926,8220DB001513,"Glasnevin, Finneber Fort",53.386767433941,-6.296776803329049,1513
927,8220DB001514,Finglas Village (Seamus Ennis Road),53.3894651562214,-6.30002191446059,1514
928,8220DB001515,"Fairview,St. Aidan's Park Road",53.3661143161413,-6.23319541821689,1515
929,8220DB001518,"Finglas South, Kildonan Road",53.3906003885099,-6.31161412406028,1518
930,8220DB001519,"Finglas, Kildonan Road",53.392444869559995,-6.3117516179852595,1519
931,8220DB001520,"Finglas, Barry Road",53.393920198925,-6.311843586577849,1520
932,8220DB001521,"Finglas, Plunkett Green",53.3972212992971,-6.31075049408942,1521
933,8220DB001523,"Finglas, Plunkett Avenue",53.397878850613395,-6.30958155709762,1523
934,8220DB001524,"Finglas, Barry Aveune",53.3955562648928,-6.310590887143889,1524
935,8220DB001525,"Finglas, Barry Road",53.3940692958004,-6.31158206161738,1525
936,8220DB001526,"Finglas, Kildonan Park",53.392306937031094,-6.31153153662509,1526
937,8220DB001528,"Cabra East, Phoenix Manor",53.3561954281552,-6.29400002572951,1528
938,8220DB001529,"Glasnevin, Saint Canice's Church",53.3884588269273,-6.298152606897769,1529
939,8220DB001530,"Glasnevin, Finneber Fort",53.3868461358084,-6.2966233195765,1530
940,8220DB001531,"Glasnevin, Clearwater Shopping Centre",53.38374366402739,-6.29336474093086,1531
941,8220DB001532,"Glasnevin, Ardmore Hotel",53.3816891441172,-6.290485541453131,1532
942,8220DB001533,"Glasnevin, Finglas Road",53.378967884758,-6.2874980880021,1533
943,8220DB001534,"Glasnevin, Ballyboggan Road",53.375332839158,-6.285975602874959,1534
944,8220DB001535,"Glasnevin, Willows Estate",53.372305958137396,-6.282369943937991,1535
945,8220DB001536,"Cabra East, Glasnevin Cemetery Main Gate",53.369626028482706,-6.27727804257368,1536
946,8220DB001537,"Glasnevin, Saint Vincent's School",53.3680662049778,-6.27320839893701,1537
947,8220DB001538,"Finglas South, Finglas Road",53.3845203435995,-6.2948821084308895,1538
948,8220DB001539,"Glasnevin, Glasanaon Road",53.3831357990658,-6.27919801572373,1539
949,8220DB001540,"Glasnevin, Johnstown Park (Griffith Road)",53.3843403099774,-6.284200628843959,1540
950,8220DB001547,"Finglas, Mellowes Park",53.395241165815804,-6.30168636640583,1547
951,8220DB001548,"Finglas, Mellowes Park",53.3961101450105,-6.30274949327834,1548
952,8220DB001549,"Finglas, Casement Road",53.3974326561122,-6.3066367830713705,1549
953,8220DB001558,"Finglas, Saint Margaret's Road",53.3998175109931,-6.303053094517581,1558
954,8220DB001559,"Finglas, Casement Road",53.3973411212961,-6.30652011500249,1559
955,8220DB001560,"Finglas, Roundabout McKee Avenue",53.397007542354004,-6.304548381458781,1560
956,8220DB001566,"Glasnevin, Johnstown Park (Griffith Road)",53.3844074206077,-6.28386719661232,1566
957,8220DB001567,"Glasnevin, Johnstown Park",53.3840139569876,-6.28026002177018,1567
958,8220DB001573,"Finglas South, Cardiffsbridge Road",53.384024164731706,-6.31246066242432,1573
959,8220DB001574,"Finglas South, Scout's Den",53.3855939979914,-6.31287964710487,1574
960,8220DB001575,"Finglas South, Colaiste Ide",53.3870584339508,-6.312836768123231,1575
961,8220DB001576,"Finglas South, Cappagh Road",53.3893174054908,-6.31304812471741,1576
962,8220DB001577,"Finglas South, Abbottstown Road",53.3898858080548,-6.3157470168664505,1577
963,8220DB001578,"Finglas, Cappagh Road",53.39040394237921,-6.3180720770738,1578
964,8220DB001579,"Finglas, Cappagh Hospital",53.393521577243604,-6.323738176628269,1579
965,8220DB001582,"Finglas, Cappagh Hospital",53.3927698845652,-6.32205359231629,1582
966,8220DB001584,"Finglas South, Abbottstown Road",53.38991304526589,-6.315129498070849,1584
967,8220DB001585,"Finglas South, Church of the Annunciation",53.3887329376982,-6.31239467200153,1585
968,8220DB001586,"Finglas South, Colaiste Ide",53.386471142827304,-6.31261944983538,1586
969,8220DB001587,"Finglas South, Cardiffsbridge Road",53.3833935040291,-6.311718927406861,1587
970,8220DB001591,"Finglas South, Wellmount Road (Finglasa Road)",53.3871387918528,-6.29949821324412,1591
971,8220DB001592,"Finglas South, Tolka Valley Road",53.379720918945,-6.28924160522583,1592
972,8220DB001593,"Finglas South, Tolka Valley Park",53.378914773394605,-6.29445974940212,1593
973,8220DB001594,"Finglas South, Gortbeigh Avenue",53.3794568556816,-6.297173828071901,1594
974,8220DB001595,"Finglas South, Saint Helena's Road (Gortmore Avenue)",53.3807395003043,-6.29761869973186,1595
975,8220DB001596,"Finglas South, Saint Helena's Road (Farnham Drive)",53.38304109530151,-6.300819057253151,1596
976,8220DB001597,"Finglas South, Valeview Gardens",53.3804552155942,-6.30923466596562,1597
977,8220DB001598,"Finglas South, Bearnamore Estate",53.380188706919796,-6.30565262683537,1598
978,8220DB001599,"Finglas South, Glenties Estate",53.380828737470395,-6.31085835538502,1599
979,8220DB001600,"Finglas South, Deanstown Avenue",53.383597017886494,-6.312763183511809,1600
980,8220DB001601,"Finglas South, Deanstown Drive",53.38389431347299,-6.31472076129327,1601
981,8220DB001602,"Finglas South, Patrician College",53.384418003166,-6.3187139572728,1602
982,8220DB001603,"Finglas South, Eastwood Estate",53.3835188568842,-6.31868925643626,1603
983,8220DB001604,"Finglas South, Rathvilly Park",53.3837908158815,-6.31630331914478,1604
984,8220DB001605,"Whitehall (Dublin City), Collins Avenue West",53.3881269998186,-6.260173268833491,1605
985,8220DB001606,"Finglas South, Saint Helena's Road",53.380370683576004,-6.306442089836861,1606
986,8220DB001607,"Finglas South, Dunsink Green",53.3821613835434,-6.303424647535371,1607
987,8220DB001608,"Finglas South, Saint Helena's Community Centre",53.383049856853106,-6.299540918729581,1608
988,8220DB001609,"Finglas South, Cloonlara Estate",53.38038423807551,-6.29728713957775,1609
989,8220DB001610,"Finglas South, Tolka Valley Road",53.378762578331795,-6.296389840937019,1610
990,8220DB001614,"Dublin, Constitution Hill",53.3512573878221,-6.2737527635738095,1614
991,8220DB001615,"Smithfield, Law Library",53.34782716536161,-6.2745973323313295,1615
992,8220DB001616,"Smithfield, Law Library",53.347285072294,-6.27502477300754,1616
993,8220DB001617,"Smithfield, Capuchin Mission Office",53.3491697338082,-6.27482850622983,1617
994,8220DB001618,"Grangegorman (Dublin City), Church Street",53.3508870581217,-6.2742484187074,1618
995,8220DB001619,"Grangegorman, Kings Inn",53.3529126950418,-6.27323519870162,1619
996,8220DB001620,"Whitehall, Swords Road",53.383263520351,-6.244150984474749,1620
997,8220DB001641,"Whitehall, Swords Road",53.3865272844342,-6.2423929664579,1641
998,8220DB001642,"Whitehall, Whitehall Church",53.384001785205896,-6.24362450358359,1642
999,8220DB001643,"Whitehall (Dublin City), Saint Aidan's School",53.384481610933705,-6.249978931273009,1643
1000,8220DB001644,"Whitehall (Dublin City), Dublin City University DCU",53.3866934438385,-6.25617249971039,1644
1001,8220DB001646,"Whitehall (Dublin City), Dublin City University DCU",53.38715464946961,-6.25698053714182,1646
1002,8220DB001647,"Wolfe Tone Quay, Law Society",53.348351063568,-6.2822517262027,1647
1003,8220DB001648,"Arbour Hill, Arbour Place",53.3510913675303,-6.2828024851050195,1648
1004,8220DB001649,"Arbour Hill, Aughrim Street",53.3525701350131,-6.28438044847903,1649
1005,8220DB001650,"Clontarf, Castle Avenue",53.3611743870623,-6.209314275343111,1650
1006,8220DB001651,"Clontarf, Vernon Avenue",53.36794040662829,-6.194859334235481,1651
1007,8220DB001652,"Clontarf, Clontarf Castle Entrance",53.363355586012496,-6.20612742264059,1652
1008,8220DB001654,"Cabra East, Blackhorse Avenue",53.3561451797295,-6.29425742995531,1654
1009,8220DB001655,"Cabra, Blackhorse Avenue (Glenbeigh Avenue)",53.356732171847,-6.296968274115139,1655
1010,8220DB001656,"Cabra, McKee Barracks",53.35729727900021,-6.298778637748031,1656
1011,8220DB001657,"Cabra, Blackhorse Avenue",53.358392108063704,-6.3030769992370095,1657
1012,8220DB001658,"Cabra, Skreen Road (Ardpatrick Road)",53.3619888217441,-6.30951518790604,1658
1013,8220DB001659,"Cabra, Skreen Road (Navan Road)",53.3632599650494,-6.30471669903602,1659
1014,8220DB001660,"Cabra, Navan Road (Nephin Road)",53.3651865517873,-6.3093735530651704,1660
1015,8220DB001661,"Cabra, Navan Road (Church)",53.3664436172409,-6.313095537793861,1661
1016,8220DB001662,"Cabra, Navan Road (Kinvara Estate)",53.3675406916951,-6.31759043995833,1662
1017,8220DB001664,"Cabra, Navan Road (Ashtown Grove)",53.3694085180285,-6.32385863047439,1664
1018,8220DB001665,"Ashtown, Navan Road",53.3706578377534,-6.32770193003479,1665
1019,8220DB001666,"Ashtown, Ashtown Roundabout",53.371597150647794,-6.33059573112209,1666
1020,8220DB001667,"Ashtown, Ashtown Gate",53.370869767047395,-6.33450151947604,1667
1021,8220DB001668,"Ashtown, Old Race Course",53.3708427403677,-6.34030355015358,1668
1022,8220DB001694,"Ashtown, Old Race Course",53.3710173888657,-6.33993607589947,1694
1023,8220DB001695,"Ashtown, Ashtown Gate",53.3710101423756,-6.33425558646775,1695
1024,8220DB001696,"Ashtown, Navan Road",53.3715415173176,-6.32983144331411,1696
1025,8220DB001697,"Ashtown, Kempton Estate",53.3708011457454,-6.327666258942161,1697
1026,8220DB001698,"Cabra, Navan Road (Ashtown Grove)",53.3695772972019,-6.32371675132509,1698
1027,8220DB001699,"Cabra, Navan Road (Ashtown Grove)",53.368743605671796,-6.32131499536448,1699
1028,8220DB001700,"Cabra, Navan Road (Kinvara Estate)",53.36770882805679,-6.317403485467151,1700
1029,8220DB001701,"Cabra, Navan Road (Church)",53.36656725614161,-6.3129403827244195,1701
1030,8220DB001702,"Cabra, Navan Road (Nephin Road)",53.3656108301727,-6.31013813858873,1702
1031,8220DB001703,"Cabra, Navan Road (Nephin Road)",53.3647353990213,-6.307347833762409,1703
1032,8220DB001704,"Cabra, Skreen Road (Navan Road)",53.363052266208,-6.30528089867268,1704
1033,8220DB001705,"Cabra, Skreen Road (Ardpatrick Road)",53.3621807471602,-6.30847083369411,1705
1034,8220DB001706,"Cabra, Cemetery",53.3600698255997,-6.307292375272441,1706
1035,8220DB001707,"Cabra, Blackhorse Avenue",53.358428266349,-6.302459572671309,1707
1036,8220DB001708,"Cabra, McKee Barracks",53.35733235447471,-6.29871714548453,1708
1037,8220DB001709,"Cabra, Blackhorse Avenue (Glenbeigh Avenue)",53.3568682016769,-6.297052991437269,1709
1038,8220DB001710,"Arbour Hill, Drumalee Estate",53.3555699040255,-6.29174149147947,1710
1039,8220DB001711,"Arbour Hill, The Holy Family Church",53.3545779754891,-6.28963290156871,1711
1040,8220DB001712,"Arbour Hill, Aughrim Street",53.353333917003205,-6.286242591763839,1712
1041,8220DB001713,"Arbour Hill, Stanhope Street Convent",53.351907820017004,-6.283325473453231,1713
1042,8220DB001714,"Arbour Hill, Brunswick Street",53.3506378069371,-6.28188938800201,1714
1043,8220DB001715,"Smithfield, Blackhall Street",53.3477119821784,-6.282187299518559,1715
1044,8220DB001724,"Dollymount, Clontarf Road (near Mount Prospect Ave)",53.3657153153763,-6.17444158948899,1724
1045,8220DB001725,"Dollymount, Doyle's Lane",53.3637602626912,-6.17707965691367,1725
1046,8220DB001726,"Dollymount, Dollymount Park",53.3622913896674,-6.179185876116639,1726
1047,8220DB001727,"Dollymount, Kincora Road",53.36060397370629,-6.182878901225999,1727
1048,8220DB001728,"Dollymount, Conquer Hill Road",53.3596562743545,-6.186164596251321,1728
1049,8220DB001729,"Dollymount, Clontarf Bus Garage",53.358481218099,-6.190466418739719,1729
1050,8220DB001730,"Dollymount, Vernon Court",53.35823109074121,-6.19412792894392,1730
1051,8220DB001731,"Clontarf, Clontarf Road at Church",53.359096533758,-6.19667556587985,1731
1052,8220DB001732,"Clontarf, Oultan Road",53.36009974550839,-6.2024027873027805,1732
1053,8220DB001733,"Clontarf, Clontarf Road (near Scoil Uí Chonaill)",53.3602126155145,-6.20631955975878,1733
1054,8220DB001734,"Clontarf, Clontarf Road (Castle Avenue)",53.3603891356074,-6.210293782896559,1734
1055,8220DB001735,"Clontarf, Styles Road",53.361143327090595,-6.21443920712788,1735
1056,8220DB001736,"Clontarf, Saint Lawrence Road",53.3621421815528,-6.2169217466278495,1736
1057,8220DB001737,"Clontarf, Saint Lawrence Road",53.3621895624005,-6.2170850503091595,1737
1058,8220DB001738,Clontarf Road Junction Alfie Byrne Road,53.3628941786378,-6.21973023935834,1738
1059,8220DB001739,"Marino, Clontarf Road (at DART Station)",53.363885194630896,-6.22652585924791,1739
1060,8220DB001740,"Marino, Clontarf Road (at DART Station)",53.36414161674621,-6.2268457873413094,1740
1061,8220DB001741,Clontarf Road Junction Strandville Avenu,53.3629172715096,-6.2206759088764505,1741
1062,8220DB001742,"Clontarf, Saint Lawrence Road",53.36212579331529,-6.216426584861621,1742
1063,8220DB001743,"Clontarf, Styles Road",53.3611356864305,-6.21392866651198,1743
1064,8220DB001744,"Clontarf, Clontarf Road (Castle Avenue)",53.360384795336294,-6.20880648543212,1744
1065,8220DB001745,"Clontarf, Clontarf Road (near Scoil Uí Chonaill)",53.3603821064624,-6.20563631294093,1745
1066,8220DB001746,"Clontarf, Oultan Road",53.3602565190474,-6.20266663792763,1746
1067,8220DB001747,"Clontarf, Clontarf Road at Church",53.35930267631021,-6.1966368112015,1747
1068,8220DB001748,"Dollymount, Vernon Court",53.3582570201128,-6.19346576182192,1748
1069,8220DB001749,"Dollymount, Clontarf Bus Garage",53.3586249368601,-6.190460328809889,1749
1070,8220DB001750,"Raheny, Thornhill Lane",53.3688677027256,-6.17780832862968,1750
1071,8220DB001751,"Dollymount, Conquer Hill Road",53.359812707362394,-6.185812378842259,1751
1072,8220DB001752,"Dollymount, Seaview Point",53.3611275917068,-6.181849918585661,1752
1073,8220DB001753,"Dollymount, Dollymount Park",53.3621186154932,-6.179644015647991,1753
1074,8220DB001754,"Dollymount, Dollymount Avenue",53.364115656468705,-6.176809033574701,1754
1075,8220DB001755,"Dollymount, Seapark Apartments",53.366429976972,-6.18712407524492,1755
1076,8220DB001756,"Dollymount, Mount Prospect Ave (Dollymount Ave)",53.3672099080423,-6.182853198627879,1756
1077,8220DB001757,"Raheny, Park Lawn",53.368629641887104,-6.182236727622611,1757
1078,8220DB001758,"Dollymount, Baymount Park",53.3681296759012,-6.175390292328269,1758
1079,8220DB001759,"Dollymount, Clontarf Road (near Mount Prospect Ave)",53.366000222729795,-6.174264108430309,1759
1080,8220DB001760,"Dollymount, Seapark Road (Mount Prospect Avenue)",53.3659722446511,-6.187759621923091,1760
1081,8220DB001761,Seapark Road (Seafield Road),53.3638373979427,-6.188045579854679,1761
1082,8220DB001762,"Dollymount, Seafield Road East (Seafield Avenue)",53.36375118736779,-6.19124983539217,1762
